{"type":"FeatureCollection","features":[{"type":"Feature","properties":{"station_id":72,"station_name":"W 52 St & 11 Ave","t_rides":"76,391","d_rides":209},"geometry":{"type":"Point","coordinates":[-73.99392888,40.76727216]}},{"type":"Feature","properties":{"station_id":79,"station_name":"Franklin St & W Broadway","t_rides":"54,526","d_rides":149},"geometry":{"type":"Point","coordinates":[-74.00666661,40.71911552]}},{"type":"Feature","properties":{"station_id":82,"station_name":"St James Pl & Pearl St","t_rides":"19,625","d_rides":54},"geometry":{"type":"Point","coordinates":[-74.00016545,40.71117416]}},{"type":"Feature","properties":{"station_id":83,"station_name":"Atlantic Ave & Fort Greene Pl","t_rides":"28,787","d_rides":79},"geometry":{"type":"Point","coordinates":[-73.97632328,40.68382604]}},{"type":"Feature","properties":{"station_id":119,"station_name":"Park Ave & St Edwards St","t_rides":"7,011","d_rides":19},"geometry":{"type":"Point","coordinates":[-73.97803415,40.69608941]}},{"type":"Feature","properties":{"station_id":120,"station_name":"Lexington Ave & Classon Ave","t_rides":"20,098","d_rides":55},"geometry":{"type":"Point","coordinates":[-73.95928168,40.68676793]}},{"type":"Feature","properties":{"station_id":127,"station_name":"Barrow St & Hudson St","t_rides":"121,144","d_rides":332},"geometry":{"type":"Point","coordinates":[-74.00674436,40.73172428]}},{"type":"Feature","properties":{"station_id":128,"station_name":"MacDougal St & Prince St","t_rides":"122,144","d_rides":335},"geometry":{"type":"Point","coordinates":[-74.00297088,40.72710258]}},{"type":"Feature","properties":{"station_id":143,"station_name":"Clinton St & Joralemon St","t_rides":"45,730","d_rides":125},"geometry":{"type":"Point","coordinates":[-73.99337909,40.69239502]}},{"type":"Feature","properties":{"station_id":144,"station_name":"Nassau St & Navy St","t_rides":"17,943","d_rides":49},"geometry":{"type":"Point","coordinates":[-73.98068914,40.69839895]}},{"type":"Feature","properties":{"station_id":146,"station_name":"Hudson St & Reade St","t_rides":"57,391","d_rides":157},"geometry":{"type":"Point","coordinates":[-74.0091059,40.71625008]}},{"type":"Feature","properties":{"station_id":150,"station_name":"E 2 St & Avenue C","t_rides":"57,797","d_rides":158},"geometry":{"type":"Point","coordinates":[-73.98085795,40.7208736]}},{"type":"Feature","properties":{"station_id":151,"station_name":"Cleveland Pl & Spring St","t_rides":"144,149","d_rides":395},"geometry":{"type":"Point","coordinates":[-73.99724901,40.72210379]}},{"type":"Feature","properties":{"station_id":152,"station_name":"Warren St & Church St","t_rides":"8,961","d_rides":25},"geometry":{"type":"Point","coordinates":[-74.00910627,40.71473993]}},{"type":"Feature","properties":{"station_id":157,"station_name":"Henry St & Atlantic Ave","t_rides":"39,326","d_rides":108},"geometry":{"type":"Point","coordinates":[-73.99612349,40.69089272]}},{"type":"Feature","properties":{"station_id":161,"station_name":"LaGuardia Pl & W 3 St","t_rides":"71,094","d_rides":195},"geometry":{"type":"Point","coordinates":[-73.99810231,40.72917025]}},{"type":"Feature","properties":{"station_id":164,"station_name":"E 47 St & 2 Ave","t_rides":"57,903","d_rides":159},"geometry":{"type":"Point","coordinates":[-73.97032517,40.75323098]}},{"type":"Feature","properties":{"station_id":167,"station_name":"E 39 St & 3 Ave","t_rides":"82,703","d_rides":227},"geometry":{"type":"Point","coordinates":[-73.97604882,40.7489006]}},{"type":"Feature","properties":{"station_id":168,"station_name":"W 18 St & 6 Ave","t_rides":"145,279","d_rides":398},"geometry":{"type":"Point","coordinates":[-73.99456405,40.73971301]}},{"type":"Feature","properties":{"station_id":173,"station_name":"Broadway & W 49 St","t_rides":"123,467","d_rides":338},"geometry":{"type":"Point","coordinates":[-73.98452729,40.76068327]}},{"type":"Feature","properties":{"station_id":174,"station_name":"E 25 St & 1 Ave","t_rides":"73,962","d_rides":203},"geometry":{"type":"Point","coordinates":[-73.97738662,40.7381765]}},{"type":"Feature","properties":{"station_id":195,"station_name":"Liberty St & Broadway","t_rides":"78,672","d_rides":216},"geometry":{"type":"Point","coordinates":[-74.01043382,40.70905623]}},{"type":"Feature","properties":{"station_id":212,"station_name":"W 16 St & The High Line","t_rides":"90,164","d_rides":247},"geometry":{"type":"Point","coordinates":[-74.00681753,40.74334935]}},{"type":"Feature","properties":{"station_id":216,"station_name":"Columbia Heights & Cranberry St","t_rides":"14,395","d_rides":39},"geometry":{"type":"Point","coordinates":[-73.99548059,40.70037867]}},{"type":"Feature","properties":{"station_id":217,"station_name":"Old Fulton St","t_rides":"68,372","d_rides":187},"geometry":{"type":"Point","coordinates":[-73.99383605,40.70277159]}},{"type":"Feature","properties":{"station_id":223,"station_name":"W 13 St & 7 Ave","t_rides":"74,649","d_rides":205},"geometry":{"type":"Point","coordinates":[-73.99994661,40.73781509]}},{"type":"Feature","properties":{"station_id":228,"station_name":"E 48 St & 3 Ave","t_rides":"50,040","d_rides":137},"geometry":{"type":"Point","coordinates":[-73.97187886,40.7546011]}},{"type":"Feature","properties":{"station_id":229,"station_name":"Great Jones St","t_rides":"154,098","d_rides":422},"geometry":{"type":"Point","coordinates":[-73.99379025,40.72743423]}},{"type":"Feature","properties":{"station_id":232,"station_name":"Cadman Plaza E & Tillary St","t_rides":"27,797","d_rides":76},"geometry":{"type":"Point","coordinates":[-73.99014892,40.69597683]}},{"type":"Feature","properties":{"station_id":236,"station_name":"St Marks Pl & 2 Ave","t_rides":"104,584","d_rides":287},"geometry":{"type":"Point","coordinates":[-73.98713956,40.7284186]}},{"type":"Feature","properties":{"station_id":237,"station_name":"E 11 St & 2 Ave","t_rides":"107,813","d_rides":295},"geometry":{"type":"Point","coordinates":[-73.98672378,40.73047309]}},{"type":"Feature","properties":{"station_id":238,"station_name":"Bank St & Washington St","t_rides":"52,652","d_rides":144},"geometry":{"type":"Point","coordinates":[-74.00859207,40.7361967]}},{"type":"Feature","properties":{"station_id":239,"station_name":"Willoughby St & Fleet St","t_rides":"51,445","d_rides":141},"geometry":{"type":"Point","coordinates":[-73.9813018,40.69196566]}},{"type":"Feature","properties":{"station_id":241,"station_name":"DeKalb Ave & S Portland Ave","t_rides":"27,916","d_rides":76},"geometry":{"type":"Point","coordinates":[-73.97493121,40.68981035]}},{"type":"Feature","properties":{"station_id":242,"station_name":"Carlton Ave & Flushing Ave","t_rides":"24,220","d_rides":66},"geometry":{"type":"Point","coordinates":[-73.973736,40.697787]}},{"type":"Feature","properties":{"station_id":243,"station_name":"Fulton St & Rockwell Pl","t_rides":"27,837","d_rides":76},"geometry":{"type":"Point","coordinates":[-73.979382,40.688226]}},{"type":"Feature","properties":{"station_id":244,"station_name":"Willoughby Ave & Hall St","t_rides":"30,859","d_rides":85},"geometry":{"type":"Point","coordinates":[-73.96536851,40.69196035]}},{"type":"Feature","properties":{"station_id":245,"station_name":"Myrtle Ave & St Edwards St","t_rides":"13,816","d_rides":38},"geometry":{"type":"Point","coordinates":[-73.97703874,40.69327018]}},{"type":"Feature","properties":{"station_id":247,"station_name":"Perry St & Bleecker St","t_rides":"49,958","d_rides":137},"geometry":{"type":"Point","coordinates":[-74.00483091,40.73535398]}},{"type":"Feature","properties":{"station_id":248,"station_name":"Laight St & Hudson St","t_rides":"24,475","d_rides":67},"geometry":{"type":"Point","coordinates":[-74.00771779,40.72185379]}},{"type":"Feature","properties":{"station_id":249,"station_name":"Harrison St & Hudson St","t_rides":"34,150","d_rides":94},"geometry":{"type":"Point","coordinates":[-74.0090009,40.71870987]}},{"type":"Feature","properties":{"station_id":251,"station_name":"Mott St & Prince St","t_rides":"104,084","d_rides":285},"geometry":{"type":"Point","coordinates":[-73.99480012,40.72317958]}},{"type":"Feature","properties":{"station_id":252,"station_name":"MacDougal St & Washington Sq","t_rides":"69,696","d_rides":191},"geometry":{"type":"Point","coordinates":[-73.99852205,40.73226398]}},{"type":"Feature","properties":{"station_id":253,"station_name":"W 13 St & 5 Ave","t_rides":"62,035","d_rides":170},"geometry":{"type":"Point","coordinates":[-73.99453948,40.73543934]}},{"type":"Feature","properties":{"station_id":254,"station_name":"W 11 St & 6 Ave","t_rides":"68,461","d_rides":188},"geometry":{"type":"Point","coordinates":[-73.99800419,40.73532427]}},{"type":"Feature","properties":{"station_id":257,"station_name":"Lispenard St & Broadway","t_rides":"66,336","d_rides":182},"geometry":{"type":"Point","coordinates":[-74.00247214,40.71939226]}},{"type":"Feature","properties":{"station_id":258,"station_name":"DeKalb Ave & Vanderbilt Ave","t_rides":"32,974","d_rides":90},"geometry":{"type":"Point","coordinates":[-73.96885458,40.68940747]}},{"type":"Feature","properties":{"station_id":259,"station_name":"South St & Whitehall St","t_rides":"61,655","d_rides":169},"geometry":{"type":"Point","coordinates":[-74.01234218,40.70122128]}},{"type":"Feature","properties":{"station_id":260,"station_name":"Broad St & Bridge St","t_rides":"25,757","d_rides":71},"geometry":{"type":"Point","coordinates":[-74.01167797,40.70365182]}},{"type":"Feature","properties":{"station_id":261,"station_name":"Johnson St & Gold St","t_rides":"27,732","d_rides":76},"geometry":{"type":"Point","coordinates":[-73.98362464,40.69474881]}},{"type":"Feature","properties":{"station_id":262,"station_name":"Washington Park","t_rides":"22,859","d_rides":63},"geometry":{"type":"Point","coordinates":[-73.9737299,40.6917823]}},{"type":"Feature","properties":{"station_id":264,"station_name":"Maiden Ln & Pearl St","t_rides":"44,483","d_rides":122},"geometry":{"type":"Point","coordinates":[-74.00731853,40.70706456]}},{"type":"Feature","properties":{"station_id":265,"station_name":"Stanton St & Chrystie St","t_rides":"92,551","d_rides":254},"geometry":{"type":"Point","coordinates":[-73.99147535,40.72229346]}},{"type":"Feature","properties":{"station_id":266,"station_name":"Avenue D & E 8 St","t_rides":"34,093","d_rides":93},"geometry":{"type":"Point","coordinates":[-73.97574813,40.72368361]}},{"type":"Feature","properties":{"station_id":267,"station_name":"Broadway & W 36 St","t_rides":"78,589","d_rides":215},"geometry":{"type":"Point","coordinates":[-73.98765428,40.75097711]}},{"type":"Feature","properties":{"station_id":268,"station_name":"Howard St & Centre St","t_rides":"82,085","d_rides":225},"geometry":{"type":"Point","coordinates":[-73.99973337,40.71910537]}},{"type":"Feature","properties":{"station_id":270,"station_name":"Adelphi St & Myrtle Ave","t_rides":"36,847","d_rides":101},"geometry":{"type":"Point","coordinates":[-73.97178913,40.69308257]}},{"type":"Feature","properties":{"station_id":274,"station_name":"Lafayette Ave & Fort Greene Pl","t_rides":"37,285","d_rides":102},"geometry":{"type":"Point","coordinates":[-73.976682,40.68691865]}},{"type":"Feature","properties":{"station_id":275,"station_name":"Washington Ave & Greene Ave","t_rides":"19,868","d_rides":54},"geometry":{"type":"Point","coordinates":[-73.96563307,40.68650065]}},{"type":"Feature","properties":{"station_id":276,"station_name":"Duane St & Greenwich St","t_rides":"42,924","d_rides":118},"geometry":{"type":"Point","coordinates":[-74.0104554,40.71748752]}},{"type":"Feature","properties":{"station_id":278,"station_name":"Concord St & Bridge St","t_rides":"14,987","d_rides":41},"geometry":{"type":"Point","coordinates":[-73.98476437,40.69766564]}},{"type":"Feature","properties":{"station_id":279,"station_name":"Peck Slip & Front St","t_rides":"66,279","d_rides":182},"geometry":{"type":"Point","coordinates":[-74.00167,40.707873]}},{"type":"Feature","properties":{"station_id":280,"station_name":"E 10 St & 5 Ave","t_rides":"53,523","d_rides":147},"geometry":{"type":"Point","coordinates":[-73.99510132,40.73331967]}},{"type":"Feature","properties":{"station_id":281,"station_name":"Grand Army Plaza & Central Park S","t_rides":"145,981","d_rides":400},"geometry":{"type":"Point","coordinates":[-73.97371465,40.7643971]}},{"type":"Feature","properties":{"station_id":282,"station_name":"Kent Ave & S 11 St","t_rides":"33,551","d_rides":92},"geometry":{"type":"Point","coordinates":[-73.96841526,40.70764494]}},{"type":"Feature","properties":{"station_id":284,"station_name":"Greenwich Ave & 8 Ave","t_rides":"37,844","d_rides":104},"geometry":{"type":"Point","coordinates":[-74.00263761,40.73901691]}},{"type":"Feature","properties":{"station_id":285,"station_name":"Broadway & E 14 St","t_rides":"186,107","d_rides":510},"geometry":{"type":"Point","coordinates":[-73.99074142,40.73454567]}},{"type":"Feature","properties":{"station_id":289,"station_name":"Monroe St & Classon Ave","t_rides":"15,108","d_rides":41},"geometry":{"type":"Point","coordinates":[-73.95881081,40.6845683]}},{"type":"Feature","properties":{"station_id":291,"station_name":"Madison St & Montgomery St","t_rides":"33,026","d_rides":90},"geometry":{"type":"Point","coordinates":[-73.984844,40.713126]}},{"type":"Feature","properties":{"station_id":293,"station_name":"Lafayette St & E 8 St","t_rides":"166,182","d_rides":455},"geometry":{"type":"Point","coordinates":[-73.99102628,40.73020661]}},{"type":"Feature","properties":{"station_id":295,"station_name":"Pike St & E Broadway","t_rides":"52,425","d_rides":144},"geometry":{"type":"Point","coordinates":[-73.99293911,40.71406667]}},{"type":"Feature","properties":{"station_id":296,"station_name":"Division St & Bowery","t_rides":"67,183","d_rides":184},"geometry":{"type":"Point","coordinates":[-73.9970468,40.71413089]}},{"type":"Feature","properties":{"station_id":297,"station_name":"E 15 St & 3 Ave","t_rides":"107,038","d_rides":293},"geometry":{"type":"Point","coordinates":[-73.986923,40.734232]}},{"type":"Feature","properties":{"station_id":298,"station_name":"3 Ave & Schermerhorn St","t_rides":"18,354","d_rides":50},"geometry":{"type":"Point","coordinates":[-73.9796772,40.68683208]}},{"type":"Feature","properties":{"station_id":301,"station_name":"E 2 St & Avenue B","t_rides":"85,242","d_rides":234},"geometry":{"type":"Point","coordinates":[-73.98368779,40.72217444]}},{"type":"Feature","properties":{"station_id":302,"station_name":"Avenue D & E 3 St","t_rides":"45,114","d_rides":124},"geometry":{"type":"Point","coordinates":[-73.97793172,40.72082834]}},{"type":"Feature","properties":{"station_id":303,"station_name":"Mercer St & Spring St","t_rides":"72,585","d_rides":199},"geometry":{"type":"Point","coordinates":[-73.99949601,40.72362738]}},{"type":"Feature","properties":{"station_id":304,"station_name":"Broadway & Battery Pl","t_rides":"95,079","d_rides":260},"geometry":{"type":"Point","coordinates":[-74.01361706,40.70463334]}},{"type":"Feature","properties":{"station_id":305,"station_name":"E 58 St & 3 Ave","t_rides":"80,741","d_rides":221},"geometry":{"type":"Point","coordinates":[-73.96724467,40.76095756]}},{"type":"Feature","properties":{"station_id":306,"station_name":"Cliff St & Fulton St_1","t_rides":"46,140","d_rides":126},"geometry":{"type":"Point","coordinates":[-74.00530063,40.70823502]}},{"type":"Feature","properties":{"station_id":307,"station_name":"Canal St & Rutgers St","t_rides":"100,864","d_rides":276},"geometry":{"type":"Point","coordinates":[-73.98990025,40.71427487]}},{"type":"Feature","properties":{"station_id":308,"station_name":"St James Pl & Oliver St","t_rides":"46,554","d_rides":128},"geometry":{"type":"Point","coordinates":[-73.99851193,40.71307916]}},{"type":"Feature","properties":{"station_id":309,"station_name":"Murray St & West St","t_rides":"64,290","d_rides":176},"geometry":{"type":"Point","coordinates":[-74.013012,40.7149787]}},{"type":"Feature","properties":{"station_id":310,"station_name":"State St & Smith St","t_rides":"35,272","d_rides":97},"geometry":{"type":"Point","coordinates":[-73.98912867,40.68926942]}},{"type":"Feature","properties":{"station_id":311,"station_name":"Norfolk St & Broome St","t_rides":"63,488","d_rides":174},"geometry":{"type":"Point","coordinates":[-73.98802084,40.7172274]}},{"type":"Feature","properties":{"station_id":312,"station_name":"Allen St & Stanton St","t_rides":"103,072","d_rides":282},"geometry":{"type":"Point","coordinates":[-73.989111,40.722055]}},{"type":"Feature","properties":{"station_id":313,"station_name":"Washington Ave & Park Ave","t_rides":"28,346","d_rides":78},"geometry":{"type":"Point","coordinates":[-73.96751037,40.69610226]}},{"type":"Feature","properties":{"station_id":314,"station_name":"Cadman Plaza West & Montague St","t_rides":"38,380","d_rides":105},"geometry":{"type":"Point","coordinates":[-73.990539,40.69383]}},{"type":"Feature","properties":{"station_id":315,"station_name":"South St & Gouverneur Ln","t_rides":"95,241","d_rides":261},"geometry":{"type":"Point","coordinates":[-74.00670227,40.70355377]}},{"type":"Feature","properties":{"station_id":316,"station_name":"Fulton St & William St","t_rides":"43,259","d_rides":119},"geometry":{"type":"Point","coordinates":[-74.00653609,40.70955958]}},{"type":"Feature","properties":{"station_id":317,"station_name":"E 6 St & Avenue B","t_rides":"77,874","d_rides":213},"geometry":{"type":"Point","coordinates":[-73.98185424,40.72453734]}},{"type":"Feature","properties":{"station_id":319,"station_name":"Fulton St & Broadway","t_rides":"84,500","d_rides":232},"geometry":{"type":"Point","coordinates":[-74.009447,40.711066]}},{"type":"Feature","properties":{"station_id":320,"station_name":"Leonard St & Church St","t_rides":"48,397","d_rides":133},"geometry":{"type":"Point","coordinates":[-74.005549,40.717571]}},{"type":"Feature","properties":{"station_id":321,"station_name":"Cadman Plaza E & Red Cross Pl","t_rides":"46,982","d_rides":129},"geometry":{"type":"Point","coordinates":[-73.98971773,40.69991755]}},{"type":"Feature","properties":{"station_id":322,"station_name":"Clinton St & Tillary St","t_rides":"27,892","d_rides":76},"geometry":{"type":"Point","coordinates":[-73.991218,40.696192]}},{"type":"Feature","properties":{"station_id":323,"station_name":"Lawrence St & Willoughby St","t_rides":"47,245","d_rides":129},"geometry":{"type":"Point","coordinates":[-73.98631746,40.69236178]}},{"type":"Feature","properties":{"station_id":324,"station_name":"DeKalb Ave & Hudson Ave","t_rides":"55,665","d_rides":153},"geometry":{"type":"Point","coordinates":[-73.981013,40.689888]}},{"type":"Feature","properties":{"station_id":325,"station_name":"E 19 St & 3 Ave","t_rides":"72,013","d_rides":197},"geometry":{"type":"Point","coordinates":[-73.98473765,40.73624527]}},{"type":"Feature","properties":{"station_id":326,"station_name":"E 11 St & 1 Ave","t_rides":"93,498","d_rides":256},"geometry":{"type":"Point","coordinates":[-73.98426726,40.72953837]}},{"type":"Feature","properties":{"station_id":327,"station_name":"Vesey Pl & River Terrace","t_rides":"129,677","d_rides":355},"geometry":{"type":"Point","coordinates":[-74.01658354,40.7153379]}},{"type":"Feature","properties":{"station_id":328,"station_name":"Watts St & Greenwich St","t_rides":"72,734","d_rides":199},"geometry":{"type":"Point","coordinates":[-74.00965965,40.72405549]}},{"type":"Feature","properties":{"station_id":330,"station_name":"Reade St & Broadway","t_rides":"50,575","d_rides":139},"geometry":{"type":"Point","coordinates":[-74.00562789,40.71450451]}},{"type":"Feature","properties":{"station_id":331,"station_name":"Pike St & Monroe St","t_rides":"35,280","d_rides":97},"geometry":{"type":"Point","coordinates":[-73.99193043,40.71173107]}},{"type":"Feature","properties":{"station_id":332,"station_name":"Cherry St","t_rides":"35,488","d_rides":97},"geometry":{"type":"Point","coordinates":[-73.97948148,40.71219906]}},{"type":"Feature","properties":{"station_id":334,"station_name":"W 20 St & 7 Ave","t_rides":"90,697","d_rides":248},"geometry":{"type":"Point","coordinates":[-73.99726235,40.74238787]}},{"type":"Feature","properties":{"station_id":335,"station_name":"Washington Pl & Broadway","t_rides":"81,109","d_rides":222},"geometry":{"type":"Point","coordinates":[-73.99404649,40.72903917]}},{"type":"Feature","properties":{"station_id":336,"station_name":"Sullivan St & Washington Sq","t_rides":"106,026","d_rides":290},"geometry":{"type":"Point","coordinates":[-73.99906065,40.73047747]}},{"type":"Feature","properties":{"station_id":337,"station_name":"Old Slip & Front St","t_rides":"37,132","d_rides":102},"geometry":{"type":"Point","coordinates":[-74.00838676,40.7037992]}},{"type":"Feature","properties":{"station_id":339,"station_name":"Avenue D & E 12 St","t_rides":"25,637","d_rides":70},"geometry":{"type":"Point","coordinates":[-73.97422494,40.72580614]}},{"type":"Feature","properties":{"station_id":340,"station_name":"Madison St & Clinton St","t_rides":"39,884","d_rides":109},"geometry":{"type":"Point","coordinates":[-73.98776323,40.71269042]}},{"type":"Feature","properties":{"station_id":341,"station_name":"Stanton St & Mangin St","t_rides":"33,271","d_rides":91},"geometry":{"type":"Point","coordinates":[-73.97628939,40.71782143]}},{"type":"Feature","properties":{"station_id":342,"station_name":"Columbia St & Rivington St","t_rides":"39,362","d_rides":108},"geometry":{"type":"Point","coordinates":[-73.98016555,40.71739973]}},{"type":"Feature","properties":{"station_id":343,"station_name":"Clinton Ave & Flushing Ave","t_rides":"18,849","d_rides":52},"geometry":{"type":"Point","coordinates":[-73.96986848,40.69794]}},{"type":"Feature","properties":{"station_id":344,"station_name":"Monroe St & Bedford Ave","t_rides":"21,812","d_rides":60},"geometry":{"type":"Point","coordinates":[-73.95380904,40.6851443]}},{"type":"Feature","properties":{"station_id":345,"station_name":"W 13 St & 6 Ave","t_rides":"68,191","d_rides":187},"geometry":{"type":"Point","coordinates":[-73.99704374,40.73649403]}},{"type":"Feature","properties":{"station_id":346,"station_name":"Bank St & Hudson St","t_rides":"74,387","d_rides":204},"geometry":{"type":"Point","coordinates":[-74.00618026,40.73652889]}},{"type":"Feature","properties":{"station_id":347,"station_name":"Greenwich St & W Houston St","t_rides":"106,037","d_rides":291},"geometry":{"type":"Point","coordinates":[-74.008591,40.728846]}},{"type":"Feature","properties":{"station_id":349,"station_name":"Rivington St & Ridge St","t_rides":"38,336","d_rides":105},"geometry":{"type":"Point","coordinates":[-73.98329859,40.71850211]}},{"type":"Feature","properties":{"station_id":350,"station_name":"Clinton St & Grand St","t_rides":"63,976","d_rides":175},"geometry":{"type":"Point","coordinates":[-73.9870295,40.71559509]}},{"type":"Feature","properties":{"station_id":351,"station_name":"Front St & Maiden Ln","t_rides":"51,475","d_rides":141},"geometry":{"type":"Point","coordinates":[-74.00612572,40.70530954]}},{"type":"Feature","properties":{"station_id":353,"station_name":"S Portland Ave & Hanson Pl","t_rides":"23,101","d_rides":63},"geometry":{"type":"Point","coordinates":[-73.97431458,40.68539567]}},{"type":"Feature","properties":{"station_id":354,"station_name":"Emerson Pl & Myrtle Ave","t_rides":"28,740","d_rides":79},"geometry":{"type":"Point","coordinates":[-73.96223558,40.69363137]}},{"type":"Feature","properties":{"station_id":355,"station_name":"Bayard St & Baxter St","t_rides":"68,625","d_rides":188},"geometry":{"type":"Point","coordinates":[-73.99974372,40.71602118]}},{"type":"Feature","properties":{"station_id":356,"station_name":"Bialystoker Pl & Delancey St","t_rides":"34,397","d_rides":94},"geometry":{"type":"Point","coordinates":[-73.98261206,40.71622644]}},{"type":"Feature","properties":{"station_id":357,"station_name":"E 11 St & Broadway","t_rides":"48,740","d_rides":134},"geometry":{"type":"Point","coordinates":[-73.99158043,40.73261787]}},{"type":"Feature","properties":{"station_id":358,"station_name":"Christopher St & Greenwich St","t_rides":"155,997","d_rides":427},"geometry":{"type":"Point","coordinates":[-74.00711384,40.73291553]}},{"type":"Feature","properties":{"station_id":359,"station_name":"E 47 St & Park Ave","t_rides":"143,692","d_rides":394},"geometry":{"type":"Point","coordinates":[-73.97498696,40.75510267]}},{"type":"Feature","properties":{"station_id":360,"station_name":"William St & Pine St","t_rides":"41,536","d_rides":114},"geometry":{"type":"Point","coordinates":[-74.00887308,40.70717936]}},{"type":"Feature","properties":{"station_id":361,"station_name":"Allen St & Hester St","t_rides":"87,619","d_rides":240},"geometry":{"type":"Point","coordinates":[-73.99190759,40.71605866]}},{"type":"Feature","properties":{"station_id":362,"station_name":"Broadway & W 37 St","t_rides":"46,706","d_rides":128},"geometry":{"type":"Point","coordinates":[-73.98753523,40.75172632]}},{"type":"Feature","properties":{"station_id":363,"station_name":"West Thames St","t_rides":"76,910","d_rides":211},"geometry":{"type":"Point","coordinates":[-74.01713445,40.70834698]}},{"type":"Feature","properties":{"station_id":364,"station_name":"Lafayette Ave & Classon Ave","t_rides":"29,795","d_rides":82},"geometry":{"type":"Point","coordinates":[-73.96023854,40.68900443]}},{"type":"Feature","properties":{"station_id":365,"station_name":"Fulton St & Grand Ave","t_rides":"21,580","d_rides":59},"geometry":{"type":"Point","coordinates":[-73.9614583,40.68223166]}},{"type":"Feature","properties":{"station_id":366,"station_name":"Clinton Ave & Myrtle Ave","t_rides":"44,532","d_rides":122},"geometry":{"type":"Point","coordinates":[-73.968896,40.693261]}},{"type":"Feature","properties":{"station_id":368,"station_name":"Carmine St & 6 Ave","t_rides":"161,868","d_rides":443},"geometry":{"type":"Point","coordinates":[-74.00214988,40.73038599]}},{"type":"Feature","properties":{"station_id":369,"station_name":"Washington Pl & 6 Ave","t_rides":"62,149","d_rides":170},"geometry":{"type":"Point","coordinates":[-74.00026394,40.73224119]}},{"type":"Feature","properties":{"station_id":372,"station_name":"Franklin Ave & Myrtle Ave","t_rides":"12,738","d_rides":35},"geometry":{"type":"Point","coordinates":[-73.95801365,40.69454609]}},{"type":"Feature","properties":{"station_id":373,"station_name":"Willoughby Ave & Walworth St","t_rides":"10,937","d_rides":30},"geometry":{"type":"Point","coordinates":[-73.95381995,40.69331716]}},{"type":"Feature","properties":{"station_id":376,"station_name":"John St & William St","t_rides":"44,551","d_rides":122},"geometry":{"type":"Point","coordinates":[-74.00722156,40.70862144]}},{"type":"Feature","properties":{"station_id":377,"station_name":"6 Ave & Canal St","t_rides":"84,087","d_rides":230},"geometry":{"type":"Point","coordinates":[-74.00566443,40.72243797]}},{"type":"Feature","properties":{"station_id":379,"station_name":"W 31 St & 7 Ave","t_rides":"150,259","d_rides":412},"geometry":{"type":"Point","coordinates":[-73.9916,40.749156]}},{"type":"Feature","properties":{"station_id":380,"station_name":"W 4 St & 7 Ave S","t_rides":"97,485","d_rides":267},"geometry":{"type":"Point","coordinates":[-74.00293877,40.73401143]}},{"type":"Feature","properties":{"station_id":382,"station_name":"University Pl & E 14 St","t_rides":"153,954","d_rides":422},"geometry":{"type":"Point","coordinates":[-73.99200509,40.73492695]}},{"type":"Feature","properties":{"station_id":383,"station_name":"Greenwich Ave & Charles St","t_rides":"97,406","d_rides":267},"geometry":{"type":"Point","coordinates":[-74.000271,40.735238]}},{"type":"Feature","properties":{"station_id":385,"station_name":"E 55 St & 2 Ave","t_rides":"17,477","d_rides":48},"geometry":{"type":"Point","coordinates":[-73.96603308,40.75797322]}},{"type":"Feature","properties":{"station_id":386,"station_name":"Centre St & Worth St","t_rides":"49,931","d_rides":137},"geometry":{"type":"Point","coordinates":[-74.00234482,40.71494807]}},{"type":"Feature","properties":{"station_id":387,"station_name":"Centre St & Chambers St","t_rides":"139,872","d_rides":383},"geometry":{"type":"Point","coordinates":[-74.0046073,40.71273266]}},{"type":"Feature","properties":{"station_id":388,"station_name":"W 26 St & 10 Ave","t_rides":"80,687","d_rides":221},"geometry":{"type":"Point","coordinates":[-74.00295035,40.74971775]}},{"type":"Feature","properties":{"station_id":389,"station_name":"Broadway & Berry St","t_rides":"42,143","d_rides":115},"geometry":{"type":"Point","coordinates":[-73.96525063,40.71044554]}},{"type":"Feature","properties":{"station_id":390,"station_name":"Duffield St & Willoughby St","t_rides":"33,886","d_rides":93},"geometry":{"type":"Point","coordinates":[-73.9842844,40.69221589]}},{"type":"Feature","properties":{"station_id":391,"station_name":"Clark St & Henry St","t_rides":"50,859","d_rides":139},"geometry":{"type":"Point","coordinates":[-73.99344559,40.69760127]}},{"type":"Feature","properties":{"station_id":392,"station_name":"Jay St & Tech Pl","t_rides":"45,136","d_rides":124},"geometry":{"type":"Point","coordinates":[-73.987167,40.695065]}},{"type":"Feature","properties":{"station_id":393,"station_name":"E 5 St & Avenue C","t_rides":"42,966","d_rides":118},"geometry":{"type":"Point","coordinates":[-73.97995466,40.72299208]}},{"type":"Feature","properties":{"station_id":394,"station_name":"E 9 St & Avenue C","t_rides":"74,110","d_rides":203},"geometry":{"type":"Point","coordinates":[-73.97768752,40.72521311]}},{"type":"Feature","properties":{"station_id":396,"station_name":"Lefferts Pl & Franklin Ave","t_rides":"15,628","d_rides":43},"geometry":{"type":"Point","coordinates":[-73.95576894,40.68034242]}},{"type":"Feature","properties":{"station_id":397,"station_name":"Fulton St & Clermont Ave","t_rides":"14,307","d_rides":39},"geometry":{"type":"Point","coordinates":[-73.96922273,40.68415748]}},{"type":"Feature","properties":{"station_id":398,"station_name":"Atlantic Ave & Furman St","t_rides":"46,414","d_rides":127},"geometry":{"type":"Point","coordinates":[-73.9999786,40.69165183]}},{"type":"Feature","properties":{"station_id":399,"station_name":"Lafayette Ave & St James Pl","t_rides":"27,103","d_rides":74},"geometry":{"type":"Point","coordinates":[-73.9647628,40.68851534]}},{"type":"Feature","properties":{"station_id":400,"station_name":"Pitt St & Stanton St","t_rides":"18,682","d_rides":51},"geometry":{"type":"Point","coordinates":[-73.98178024,40.71926081]}},{"type":"Feature","properties":{"station_id":401,"station_name":"Allen St & Rivington St","t_rides":"95,477","d_rides":262},"geometry":{"type":"Point","coordinates":[-73.98997825,40.72019576]}},{"type":"Feature","properties":{"station_id":402,"station_name":"Broadway & E 22 St","t_rides":"215,146","d_rides":589},"geometry":{"type":"Point","coordinates":[-73.98955109,40.7403432]}},{"type":"Feature","properties":{"station_id":403,"station_name":"E 2 St & 2 Ave","t_rides":"99,465","d_rides":273},"geometry":{"type":"Point","coordinates":[-73.99069656,40.72502876]}},{"type":"Feature","properties":{"station_id":405,"station_name":"Washington St & Gansevoort St","t_rides":"118,535","d_rides":325},"geometry":{"type":"Point","coordinates":[-74.008119,40.739323]}},{"type":"Feature","properties":{"station_id":406,"station_name":"Hicks St & Montague St","t_rides":"41,486","d_rides":114},"geometry":{"type":"Point","coordinates":[-73.99595065,40.69512845]}},{"type":"Feature","properties":{"station_id":407,"station_name":"Henry St & Poplar St","t_rides":"21,100","d_rides":58},"geometry":{"type":"Point","coordinates":[-73.991454,40.700469]}},{"type":"Feature","properties":{"station_id":408,"station_name":"Market St & Cherry St","t_rides":"35,565","d_rides":97},"geometry":{"type":"Point","coordinates":[-73.99400398,40.71076228]}},{"type":"Feature","properties":{"station_id":409,"station_name":"DeKalb Ave & Skillman St","t_rides":"17,519","d_rides":48},"geometry":{"type":"Point","coordinates":[-73.95643107,40.6906495]}},{"type":"Feature","properties":{"station_id":410,"station_name":"Suffolk St & Stanton St","t_rides":"92,333","d_rides":253},"geometry":{"type":"Point","coordinates":[-73.98517977,40.72066442]}},{"type":"Feature","properties":{"station_id":411,"station_name":"E 6 St & Avenue D","t_rides":"40,319","d_rides":110},"geometry":{"type":"Point","coordinates":[-73.97668709,40.72228087]}},{"type":"Feature","properties":{"station_id":412,"station_name":"Forsyth St & Canal St","t_rides":"83,756","d_rides":229},"geometry":{"type":"Point","coordinates":[-73.99422366,40.7158155]}},{"type":"Feature","properties":{"station_id":414,"station_name":"Pearl St & Anchorage Pl","t_rides":"39,498","d_rides":108},"geometry":{"type":"Point","coordinates":[-73.98765762,40.70281858]}},{"type":"Feature","properties":{"station_id":415,"station_name":"Pearl St & Hanover Square","t_rides":"48,193","d_rides":132},"geometry":{"type":"Point","coordinates":[-74.00926027,40.7047177]}},{"type":"Feature","properties":{"station_id":416,"station_name":"Cumberland St & Lafayette Ave","t_rides":"27,942","d_rides":77},"geometry":{"type":"Point","coordinates":[-73.97265183,40.68753406]}},{"type":"Feature","properties":{"station_id":417,"station_name":"Barclay St & Church St","t_rides":"92,160","d_rides":252},"geometry":{"type":"Point","coordinates":[-74.01020234,40.71291224]}},{"type":"Feature","properties":{"station_id":418,"station_name":"Front St & Gold St","t_rides":"25,971","d_rides":71},"geometry":{"type":"Point","coordinates":[-73.982578,40.70224]}},{"type":"Feature","properties":{"station_id":419,"station_name":"Carlton Ave & Park Ave","t_rides":"15,909","d_rides":44},"geometry":{"type":"Point","coordinates":[-73.97355569,40.69580705]}},{"type":"Feature","properties":{"station_id":420,"station_name":"Clermont Ave & Lafayette Ave","t_rides":"18,957","d_rides":52},"geometry":{"type":"Point","coordinates":[-73.96968902,40.68764484]}},{"type":"Feature","properties":{"station_id":421,"station_name":"Clermont Ave & Park Ave","t_rides":"13,986","d_rides":38},"geometry":{"type":"Point","coordinates":[-73.97129668,40.69573398]}},{"type":"Feature","properties":{"station_id":422,"station_name":"W 59 St & 10 Ave","t_rides":"56,632","d_rides":155},"geometry":{"type":"Point","coordinates":[-73.988038,40.770513]}},{"type":"Feature","properties":{"station_id":423,"station_name":"W 54 St & 9 Ave","t_rides":"64,857","d_rides":178},"geometry":{"type":"Point","coordinates":[-73.98690506,40.76584941]}},{"type":"Feature","properties":{"station_id":426,"station_name":"West St & Chambers St","t_rides":"193,389","d_rides":530},"geometry":{"type":"Point","coordinates":[-74.01322069,40.71754834]}},{"type":"Feature","properties":{"station_id":427,"station_name":"Bus Slip & State St","t_rides":"49,576","d_rides":136},"geometry":{"type":"Point","coordinates":[-74.013942,40.701907]}},{"type":"Feature","properties":{"station_id":428,"station_name":"E 3 St & 1 Ave","t_rides":5,"d_rides":0},"geometry":{"type":"Point","coordinates":[-73.98783413,40.72467721]}},{"type":"Feature","properties":{"station_id":430,"station_name":"York St & Jay St","t_rides":"9,519","d_rides":26},"geometry":{"type":"Point","coordinates":[-73.98656928,40.7014851]}},{"type":"Feature","properties":{"station_id":432,"station_name":"E 7 St & Avenue A","t_rides":"121,946","d_rides":334},"geometry":{"type":"Point","coordinates":[-73.98379855,40.72621788]}},{"type":"Feature","properties":{"station_id":433,"station_name":"E 13 St & Avenue A","t_rides":"124,471","d_rides":341},"geometry":{"type":"Point","coordinates":[-73.98057249,40.72955361]}},{"type":"Feature","properties":{"station_id":435,"station_name":"W 21 St & 6 Ave","t_rides":"214,903","d_rides":589},"geometry":{"type":"Point","coordinates":[-73.99415556,40.74173969]}},{"type":"Feature","properties":{"station_id":436,"station_name":"Hancock St & Bedford Ave","t_rides":"13,382","d_rides":37},"geometry":{"type":"Point","coordinates":[-73.95399026,40.68216564]}},{"type":"Feature","properties":{"station_id":437,"station_name":"Macon St & Nostrand Ave","t_rides":"29,712","d_rides":81},"geometry":{"type":"Point","coordinates":[-73.95004798,40.68098339]}},{"type":"Feature","properties":{"station_id":438,"station_name":"St Marks Pl & 1 Ave","t_rides":"100,786","d_rides":276},"geometry":{"type":"Point","coordinates":[-73.98564945,40.72779126]}},{"type":"Feature","properties":{"station_id":439,"station_name":"E 4 St & 2 Ave","t_rides":"66,695","d_rides":183},"geometry":{"type":"Point","coordinates":[-73.98978041,40.7262807]}},{"type":"Feature","properties":{"station_id":440,"station_name":"E 45 St & 3 Ave","t_rides":"63,891","d_rides":175},"geometry":{"type":"Point","coordinates":[-73.97282625,40.75255434]}},{"type":"Feature","properties":{"station_id":441,"station_name":"E 52 St & 2 Ave","t_rides":"61,941","d_rides":170},"geometry":{"type":"Point","coordinates":[-73.967416,40.756014]}},{"type":"Feature","properties":{"station_id":442,"station_name":"W 27 St & 7 Ave","t_rides":"116,423","d_rides":319},"geometry":{"type":"Point","coordinates":[-73.993915,40.746647]}},{"type":"Feature","properties":{"station_id":443,"station_name":"Bedford Ave & S 9 St","t_rides":"9,833","d_rides":27},"geometry":{"type":"Point","coordinates":[-73.96408963,40.70853074]}},{"type":"Feature","properties":{"station_id":445,"station_name":"E 10 St & Avenue A","t_rides":"134,523","d_rides":369},"geometry":{"type":"Point","coordinates":[-73.98142006,40.72740794]}},{"type":"Feature","properties":{"station_id":446,"station_name":"W 24 St & 7 Ave","t_rides":"127,769","d_rides":350},"geometry":{"type":"Point","coordinates":[-73.99529885,40.74487634]}},{"type":"Feature","properties":{"station_id":447,"station_name":"8 Ave & W 52 St","t_rides":"88,728","d_rides":243},"geometry":{"type":"Point","coordinates":[-73.9851615,40.76370739]}},{"type":"Feature","properties":{"station_id":448,"station_name":"W 37 St & 10 Ave","t_rides":"86,958","d_rides":238},"geometry":{"type":"Point","coordinates":[-73.9979009,40.75660359]}},{"type":"Feature","properties":{"station_id":449,"station_name":"W 52 St & 9 Ave","t_rides":"8,699","d_rides":24},"geometry":{"type":"Point","coordinates":[-73.98789473,40.76461837]}},{"type":"Feature","properties":{"station_id":450,"station_name":"W 49 St & 8 Ave","t_rides":"110,083","d_rides":302},"geometry":{"type":"Point","coordinates":[-73.98788205,40.76227205]}},{"type":"Feature","properties":{"station_id":453,"station_name":"W 22 St & 8 Ave","t_rides":"121,785","d_rides":334},"geometry":{"type":"Point","coordinates":[-73.99915362,40.74475148]}},{"type":"Feature","properties":{"station_id":454,"station_name":"E 51 St & 1 Ave","t_rides":"41,621","d_rides":114},"geometry":{"type":"Point","coordinates":[-73.96592976,40.75455731]}},{"type":"Feature","properties":{"station_id":455,"station_name":"1 Ave & E 44 St","t_rides":"59,577","d_rides":163},"geometry":{"type":"Point","coordinates":[-73.96905301,40.75001986]}},{"type":"Feature","properties":{"station_id":456,"station_name":"E 53 St & Madison Ave","t_rides":"72,860","d_rides":200},"geometry":{"type":"Point","coordinates":[-73.97402311,40.7597108]}},{"type":"Feature","properties":{"station_id":457,"station_name":"Broadway & W 58 St","t_rides":"130,438","d_rides":357},"geometry":{"type":"Point","coordinates":[-73.98169333,40.76695317]}},{"type":"Feature","properties":{"station_id":458,"station_name":"11 Ave & W 27 St","t_rides":"115,510","d_rides":316},"geometry":{"type":"Point","coordinates":[-74.005226,40.751396]}},{"type":"Feature","properties":{"station_id":459,"station_name":"W 20 St & 11 Ave","t_rides":"154,030","d_rides":422},"geometry":{"type":"Point","coordinates":[-74.007756,40.746745]}},{"type":"Feature","properties":{"station_id":460,"station_name":"S 4 St & Wythe Ave","t_rides":"74,817","d_rides":205},"geometry":{"type":"Point","coordinates":[-73.96590294,40.71285887]}},{"type":"Feature","properties":{"station_id":461,"station_name":"E 20 St & 2 Ave","t_rides":"98,447","d_rides":270},"geometry":{"type":"Point","coordinates":[-73.98205027,40.73587678]}},{"type":"Feature","properties":{"station_id":462,"station_name":"W 22 St & 10 Ave","t_rides":"124,794","d_rides":342},"geometry":{"type":"Point","coordinates":[-74.00451887,40.74691959]}},{"type":"Feature","properties":{"station_id":465,"station_name":"Broadway & W 41 St","t_rides":"134,034","d_rides":367},"geometry":{"type":"Point","coordinates":[-73.98658032,40.75513557]}},{"type":"Feature","properties":{"station_id":466,"station_name":"W 25 St & 6 Ave","t_rides":"111,498","d_rides":305},"geometry":{"type":"Point","coordinates":[-73.99144871,40.74395411]}},{"type":"Feature","properties":{"station_id":467,"station_name":"Dean St & 4 Ave","t_rides":"49,143","d_rides":135},"geometry":{"type":"Point","coordinates":[-73.97895137,40.68312489]}},{"type":"Feature","properties":{"station_id":468,"station_name":"Broadway & W 56 St","t_rides":"99,180","d_rides":272},"geometry":{"type":"Point","coordinates":[-73.98192338,40.7652654]}},{"type":"Feature","properties":{"station_id":469,"station_name":"Broadway & W 53 St","t_rides":"75,520","d_rides":207},"geometry":{"type":"Point","coordinates":[-73.98268129,40.76344058]}},{"type":"Feature","properties":{"station_id":470,"station_name":"W 20 St & 8 Ave","t_rides":"69,758","d_rides":191},"geometry":{"type":"Point","coordinates":[-74.00004031,40.74345335]}},{"type":"Feature","properties":{"station_id":471,"station_name":"Grand St & Havemeyer St","t_rides":"35,900","d_rides":98},"geometry":{"type":"Point","coordinates":[-73.95698119,40.71286844]}},{"type":"Feature","properties":{"station_id":472,"station_name":"E 32 St & Park Ave","t_rides":"118,562","d_rides":325},"geometry":{"type":"Point","coordinates":[-73.98194829,40.7457121]}},{"type":"Feature","properties":{"station_id":473,"station_name":"Rivington St & Chrystie St","t_rides":"54,608","d_rides":150},"geometry":{"type":"Point","coordinates":[-73.9919254,40.72110063]}},{"type":"Feature","properties":{"station_id":474,"station_name":"5 Ave & E 29 St","t_rides":"78,803","d_rides":216},"geometry":{"type":"Point","coordinates":[-73.98683077,40.7451677]}},{"type":"Feature","properties":{"station_id":476,"station_name":"E 31 St & 3 Ave","t_rides":"87,458","d_rides":240},"geometry":{"type":"Point","coordinates":[-73.97966069,40.74394314]}},{"type":"Feature","properties":{"station_id":477,"station_name":"W 41 St & 8 Ave","t_rides":"175,752","d_rides":482},"geometry":{"type":"Point","coordinates":[-73.9900262,40.75640548]}},{"type":"Feature","properties":{"station_id":478,"station_name":"11 Ave & W 41 St","t_rides":"92,928","d_rides":255},"geometry":{"type":"Point","coordinates":[-73.99884222,40.76030096]}},{"type":"Feature","properties":{"station_id":479,"station_name":"9 Ave & W 45 St","t_rides":"116,278","d_rides":319},"geometry":{"type":"Point","coordinates":[-73.9912551,40.76019252]}},{"type":"Feature","properties":{"station_id":480,"station_name":"W 53 St & 10 Ave","t_rides":"76,151","d_rides":209},"geometry":{"type":"Point","coordinates":[-73.99061728,40.76669671]}},{"type":"Feature","properties":{"station_id":481,"station_name":"S 3 St & Bedford Ave","t_rides":"41,493","d_rides":114},"geometry":{"type":"Point","coordinates":[-73.96264403,40.71260486]}},{"type":"Feature","properties":{"station_id":482,"station_name":"W 15 St & 7 Ave","t_rides":"127,219","d_rides":349},"geometry":{"type":"Point","coordinates":[-73.99931783,40.73935542]}},{"type":"Feature","properties":{"station_id":483,"station_name":"E 12 St & 3 Ave","t_rides":"113,472","d_rides":311},"geometry":{"type":"Point","coordinates":[-73.98889957,40.73223272]}},{"type":"Feature","properties":{"station_id":484,"station_name":"W 44 St & 5 Ave","t_rides":"65,338","d_rides":179},"geometry":{"type":"Point","coordinates":[-73.98014437,40.75500254]}},{"type":"Feature","properties":{"station_id":485,"station_name":"W 37 St & 5 Ave","t_rides":"65,553","d_rides":180},"geometry":{"type":"Point","coordinates":[-73.98338988,40.75038009]}},{"type":"Feature","properties":{"station_id":486,"station_name":"Broadway & W 29 St","t_rides":"117,847","d_rides":323},"geometry":{"type":"Point","coordinates":[-73.98855723,40.7462009]}},{"type":"Feature","properties":{"station_id":487,"station_name":"E 20 St & FDR Drive","t_rides":"102,625","d_rides":281},"geometry":{"type":"Point","coordinates":[-73.97573881,40.73314259]}},{"type":"Feature","properties":{"station_id":490,"station_name":"8 Ave & W 33 St","t_rides":"171,365","d_rides":469},"geometry":{"type":"Point","coordinates":[-73.993934,40.751551]}},{"type":"Feature","properties":{"station_id":491,"station_name":"E 24 St & Park Ave S","t_rides":"129,669","d_rides":355},"geometry":{"type":"Point","coordinates":[-73.98602213,40.74096374]}},{"type":"Feature","properties":{"station_id":492,"station_name":"W 33 St & 7 Ave","t_rides":"154,567","d_rides":423},"geometry":{"type":"Point","coordinates":[-73.99093085,40.75019995]}},{"type":"Feature","properties":{"station_id":493,"station_name":"W 45 St & 6 Ave","t_rides":"19,537","d_rides":54},"geometry":{"type":"Point","coordinates":[-73.98291153,40.7568001]}},{"type":"Feature","properties":{"station_id":494,"station_name":"W 26 St & 8 Ave","t_rides":"113,226","d_rides":310},"geometry":{"type":"Point","coordinates":[-73.99723551,40.74734825]}},{"type":"Feature","properties":{"station_id":495,"station_name":"W 47 St & 10 Ave","t_rides":"81,494","d_rides":223},"geometry":{"type":"Point","coordinates":[-73.99301222,40.76269882]}},{"type":"Feature","properties":{"station_id":496,"station_name":"E 16 St & 5 Ave","t_rides":"115,916","d_rides":318},"geometry":{"type":"Point","coordinates":[-73.99238967,40.73726186]}},{"type":"Feature","properties":{"station_id":497,"station_name":"E 17 St & Broadway","t_rides":"221,403","d_rides":607},"geometry":{"type":"Point","coordinates":[-73.99009296,40.73704984]}},{"type":"Feature","properties":{"station_id":498,"station_name":"Broadway & W 32 St","t_rides":"112,446","d_rides":308},"geometry":{"type":"Point","coordinates":[-73.98808416,40.74854862]}},{"type":"Feature","properties":{"station_id":499,"station_name":"Broadway & W 60 St","t_rides":"165,688","d_rides":454},"geometry":{"type":"Point","coordinates":[-73.98191841,40.76915505]}},{"type":"Feature","properties":{"station_id":500,"station_name":"Broadway & W 51 St","t_rides":"71,847","d_rides":197},"geometry":{"type":"Point","coordinates":[-73.98336183,40.76228826]}},{"type":"Feature","properties":{"station_id":501,"station_name":"FDR Drive & E 35 St","t_rides":"87,242","d_rides":239},"geometry":{"type":"Point","coordinates":[-73.97121214,40.744219]}},{"type":"Feature","properties":{"station_id":502,"station_name":"Henry St & Grand St","t_rides":"64,507","d_rides":177},"geometry":{"type":"Point","coordinates":[-73.981346,40.714215]}},{"type":"Feature","properties":{"station_id":503,"station_name":"E 20 St & Park Ave","t_rides":"86,242","d_rides":236},"geometry":{"type":"Point","coordinates":[-73.98751968,40.73827428]}},{"type":"Feature","properties":{"station_id":504,"station_name":"1 Ave & E 16 St","t_rides":"135,787","d_rides":372},"geometry":{"type":"Point","coordinates":[-73.98165557,40.73221853]}},{"type":"Feature","properties":{"station_id":505,"station_name":"6 Ave & W 33 St","t_rides":"150,336","d_rides":412},"geometry":{"type":"Point","coordinates":[-73.98848395,40.74901271]}},{"type":"Feature","properties":{"station_id":507,"station_name":"E 25 St & 2 Ave","t_rides":"104,048","d_rides":285},"geometry":{"type":"Point","coordinates":[-73.97973776,40.73912601]}},{"type":"Feature","properties":{"station_id":508,"station_name":"W 46 St & 11 Ave","t_rides":"76,711","d_rides":210},"geometry":{"type":"Point","coordinates":[-73.99667444,40.76341379]}},{"type":"Feature","properties":{"station_id":509,"station_name":"9 Ave & W 22 St","t_rides":"122,024","d_rides":334},"geometry":{"type":"Point","coordinates":[-74.00197139,40.7454973]}},{"type":"Feature","properties":{"station_id":513,"station_name":"W 56 St & 10 Ave","t_rides":"58,975","d_rides":162},"geometry":{"type":"Point","coordinates":[-73.988639,40.768254]}},{"type":"Feature","properties":{"station_id":514,"station_name":"12 Ave & W 40 St","t_rides":"166,320","d_rides":456},"geometry":{"type":"Point","coordinates":[-74.00277668,40.76087502]}},{"type":"Feature","properties":{"station_id":515,"station_name":"W 43 St & 10 Ave","t_rides":"85,227","d_rides":233},"geometry":{"type":"Point","coordinates":[-73.99461843,40.76009437]}},{"type":"Feature","properties":{"station_id":516,"station_name":"E 47 St & 1 Ave","t_rides":"36,101","d_rides":99},"geometry":{"type":"Point","coordinates":[-73.96784384,40.75206862]}},{"type":"Feature","properties":{"station_id":517,"station_name":"Pershing Square South","t_rides":"104,854","d_rides":287},"geometry":{"type":"Point","coordinates":[-73.97791,40.751581]}},{"type":"Feature","properties":{"station_id":518,"station_name":"E 39 St & 2 Ave","t_rides":"103,007","d_rides":282},"geometry":{"type":"Point","coordinates":[-73.9734419,40.74780373]}},{"type":"Feature","properties":{"station_id":519,"station_name":"Pershing Square North","t_rides":"302,829","d_rides":830},"geometry":{"type":"Point","coordinates":[-73.977706,40.751873]}},{"type":"Feature","properties":{"station_id":520,"station_name":"W 52 St & 5 Ave","t_rides":"78,366","d_rides":215},"geometry":{"type":"Point","coordinates":[-73.97648516,40.75992262]}},{"type":"Feature","properties":{"station_id":522,"station_name":"E 51 St & Lexington Ave","t_rides":"47,845","d_rides":131},"geometry":{"type":"Point","coordinates":[-73.97207836,40.75714758]}},{"type":"Feature","properties":{"station_id":523,"station_name":"W 38 St & 8 Ave","t_rides":"137,122","d_rides":376},"geometry":{"type":"Point","coordinates":[-73.99138152,40.75466591]}},{"type":"Feature","properties":{"station_id":524,"station_name":"W 43 St & 6 Ave","t_rides":"87,225","d_rides":239},"geometry":{"type":"Point","coordinates":[-73.98316936,40.75527307]}},{"type":"Feature","properties":{"station_id":525,"station_name":"W 34 St & 11 Ave","t_rides":"77,686","d_rides":213},"geometry":{"type":"Point","coordinates":[-74.0021163,40.75594159]}},{"type":"Feature","properties":{"station_id":526,"station_name":"E 33 St & 5 Ave","t_rides":"82,615","d_rides":226},"geometry":{"type":"Point","coordinates":[-73.98490707,40.74765947]}},{"type":"Feature","properties":{"station_id":527,"station_name":"E 33 St & 2 Ave","t_rides":"51,228","d_rides":140},"geometry":{"type":"Point","coordinates":[-73.976056,40.744023]}},{"type":"Feature","properties":{"station_id":528,"station_name":"2 Ave & E 31 St","t_rides":"93,127","d_rides":255},"geometry":{"type":"Point","coordinates":[-73.97706058,40.74290902]}},{"type":"Feature","properties":{"station_id":529,"station_name":"W 42 St & 8 Ave","t_rides":"91,707","d_rides":251},"geometry":{"type":"Point","coordinates":[-73.99098507,40.7575699]}},{"type":"Feature","properties":{"station_id":530,"station_name":"11 Ave & W 59 St","t_rides":"90,468","d_rides":248},"geometry":{"type":"Point","coordinates":[-73.990541,40.771522]}},{"type":"Feature","properties":{"station_id":531,"station_name":"Forsyth St & Broome St","t_rides":"97,896","d_rides":268},"geometry":{"type":"Point","coordinates":[-73.99266288,40.71893904]}},{"type":"Feature","properties":{"station_id":532,"station_name":"S 5 Pl & S 5 St","t_rides":"105,996","d_rides":290},"geometry":{"type":"Point","coordinates":[-73.960876,40.710451]}},{"type":"Feature","properties":{"station_id":533,"station_name":"Broadway & W 38 St","t_rides":"74,405","d_rides":204},"geometry":{"type":"Point","coordinates":[-73.98721619,40.75299641]}},{"type":"Feature","properties":{"station_id":534,"station_name":"Water - Whitehall Plaza","t_rides":"40,656","d_rides":111},"geometry":{"type":"Point","coordinates":[-74.0127234,40.70255065]}},{"type":"Feature","properties":{"station_id":536,"station_name":"1 Ave & E 30 St","t_rides":"85,702","d_rides":235},"geometry":{"type":"Point","coordinates":[-73.97536082,40.74144387]}},{"type":"Feature","properties":{"station_id":537,"station_name":"Lexington Ave & E 24 St","t_rides":"107,481","d_rides":294},"geometry":{"type":"Point","coordinates":[-73.98409214,40.74025878]}},{"type":"Feature","properties":{"station_id":539,"station_name":"Metropolitan Ave & Bedford Ave","t_rides":"85,837","d_rides":235},"geometry":{"type":"Point","coordinates":[-73.96024116,40.71534825]}},{"type":"Feature","properties":{"station_id":540,"station_name":"Lexington Ave & E 29 St","t_rides":"94,738","d_rides":260},"geometry":{"type":"Point","coordinates":[-73.98215353,40.74311555]}},{"type":"Feature","properties":{"station_id":545,"station_name":"E 23 St & 1 Ave","t_rides":"107,071","d_rides":293},"geometry":{"type":"Point","coordinates":[-73.97809472,40.736502]}},{"type":"Feature","properties":{"station_id":546,"station_name":"E 30 St & Park Ave S","t_rides":"81,553","d_rides":223},"geometry":{"type":"Point","coordinates":[-73.98303529,40.74444921]}},{"type":"Feature","properties":{"station_id":2000,"station_name":"Front St & Washington St","t_rides":"60,662","d_rides":166},"geometry":{"type":"Point","coordinates":[-73.98940236,40.70255088]}},{"type":"Feature","properties":{"station_id":2001,"station_name":"Sands St & Navy St","t_rides":"5,678","d_rides":16},"geometry":{"type":"Point","coordinates":[-73.979927,40.699773]}},{"type":"Feature","properties":{"station_id":2002,"station_name":"Wythe Ave & Metropolitan Ave","t_rides":"68,517","d_rides":188},"geometry":{"type":"Point","coordinates":[-73.963198,40.716887]}},{"type":"Feature","properties":{"station_id":2003,"station_name":"1 Ave & E 18 St","t_rides":"95,788","d_rides":262},"geometry":{"type":"Point","coordinates":[-73.98054421,40.73381219]}},{"type":"Feature","properties":{"station_id":2005,"station_name":"Railroad Ave & Kay Ave","t_rides":"2,982","d_rides":8},"geometry":{"type":"Point","coordinates":[-73.97100056,40.70531194]}},{"type":"Feature","properties":{"station_id":2006,"station_name":"Central Park S & 6 Ave","t_rides":"154,584","d_rides":424},"geometry":{"type":"Point","coordinates":[-73.97634151,40.76590936]}},{"type":"Feature","properties":{"station_id":2008,"station_name":"Little West St & 1 Pl","t_rides":"99,058","d_rides":271},"geometry":{"type":"Point","coordinates":[-74.01677685,40.70569254]}},{"type":"Feature","properties":{"station_id":2009,"station_name":"Catherine St & Monroe St","t_rides":"45,551","d_rides":125},"geometry":{"type":"Point","coordinates":[-73.99682619,40.71117444]}},{"type":"Feature","properties":{"station_id":2010,"station_name":"Grand St & Greene St","t_rides":"68,401","d_rides":187},"geometry":{"type":"Point","coordinates":[-74.00234737,40.72165481]}},{"type":"Feature","properties":{"station_id":2012,"station_name":"E 27 St & 1 Ave","t_rides":"69,680","d_rides":191},"geometry":{"type":"Point","coordinates":[-73.976806,40.739445]}},{"type":"Feature","properties":{"station_id":2021,"station_name":"W 45 St & 8 Ave","t_rides":"92,671","d_rides":254},"geometry":{"type":"Point","coordinates":[-73.98859651,40.75929124]}},{"type":"Feature","properties":{"station_id":2022,"station_name":"E 60 St & York Ave","t_rides":"20,973","d_rides":57},"geometry":{"type":"Point","coordinates":[-73.959223,40.759107]}},{"type":"Feature","properties":{"station_id":2023,"station_name":"E 55 St & Lexington Ave","t_rides":"37,976","d_rides":104},"geometry":{"type":"Point","coordinates":[-73.97031366,40.75968085]}},{"type":"Feature","properties":{"station_id":3002,"station_name":"South End Ave & Liberty St","t_rides":"152,668","d_rides":418},"geometry":{"type":"Point","coordinates":[-74.015756,40.711512]}},{"type":"Feature","properties":{"station_id":3016,"station_name":"Kent Ave & N 7 St","t_rides":"84,808","d_rides":232},"geometry":{"type":"Point","coordinates":[-73.96165073,40.72036775]}},{"type":"Feature","properties":{"station_id":3036,"station_name":"8D OPS 01","t_rides":19,"d_rides":0},"geometry":{"type":"Point","coordinates":[-73.8966018,40.88092056]}},{"type":"Feature","properties":{"station_id":3040,"station_name":"GOW Tech Shop","t_rides":31,"d_rides":0},"geometry":{"type":"Point","coordinates":[-73.99497986,40.66979964]}},{"type":"Feature","properties":{"station_id":3041,"station_name":"Kingston Ave & Herkimer St","t_rides":"11,384","d_rides":31},"geometry":{"type":"Point","coordinates":[-73.94142771,40.67890679]}},{"type":"Feature","properties":{"station_id":3042,"station_name":"Fulton St & Utica Ave","t_rides":"12,691","d_rides":35},"geometry":{"type":"Point","coordinates":[-73.9298911,40.6794268]}},{"type":"Feature","properties":{"station_id":3043,"station_name":"Lewis Ave & Decatur St","t_rides":"6,706","d_rides":18},"geometry":{"type":"Point","coordinates":[-73.934903,40.6814598]}},{"type":"Feature","properties":{"station_id":3044,"station_name":"Albany Ave & Fulton St","t_rides":"4,430","d_rides":12},"geometry":{"type":"Point","coordinates":[-73.938475,40.6800105]}},{"type":"Feature","properties":{"station_id":3046,"station_name":"Marcus Garvey Blvd & Macon St","t_rides":"10,054","d_rides":28},"geometry":{"type":"Point","coordinates":[-73.938037,40.682601]}},{"type":"Feature","properties":{"station_id":3047,"station_name":"Halsey St & Tompkins Ave","t_rides":"13,896","d_rides":38},"geometry":{"type":"Point","coordinates":[-73.944118,40.6823687]}},{"type":"Feature","properties":{"station_id":3048,"station_name":"Putnam Ave & Nostrand Ave","t_rides":"9,410","d_rides":26},"geometry":{"type":"Point","coordinates":[-73.94977,40.68402]}},{"type":"Feature","properties":{"station_id":3049,"station_name":"Cambridge Pl & Gates Ave","t_rides":"15,220","d_rides":42},"geometry":{"type":"Point","coordinates":[-73.96304,40.68488]}},{"type":"Feature","properties":{"station_id":3050,"station_name":"Putnam Ave & Throop Ave","t_rides":"13,193","d_rides":36},"geometry":{"type":"Point","coordinates":[-73.94111,40.6851532]}},{"type":"Feature","properties":{"station_id":3052,"station_name":"Lewis Ave & Madison St","t_rides":"14,246","d_rides":39},"geometry":{"type":"Point","coordinates":[-73.935775,40.686312]}},{"type":"Feature","properties":{"station_id":3053,"station_name":"Marcy Ave & Lafayette Ave","t_rides":"8,221","d_rides":23},"geometry":{"type":"Point","coordinates":[-73.947915,40.6900815]}},{"type":"Feature","properties":{"station_id":3054,"station_name":"Greene Ave & Throop Ave","t_rides":"11,064","d_rides":30},"geometry":{"type":"Point","coordinates":[-73.942061,40.6894932]}},{"type":"Feature","properties":{"station_id":3055,"station_name":"Greene Ave & Nostrand Ave","t_rides":"11,556","d_rides":32},"geometry":{"type":"Point","coordinates":[-73.950916,40.6883337]}},{"type":"Feature","properties":{"station_id":3056,"station_name":"Kosciuszko St & Nostrand Ave","t_rides":"10,855","d_rides":30},"geometry":{"type":"Point","coordinates":[-73.95133465,40.69072549]}},{"type":"Feature","properties":{"station_id":3057,"station_name":"Kosciuszko St & Tompkins Ave","t_rides":"13,710","d_rides":38},"geometry":{"type":"Point","coordinates":[-73.9452416,40.69128258]}},{"type":"Feature","properties":{"station_id":3058,"station_name":"Lewis Ave & Kosciuszko St","t_rides":"11,410","d_rides":31},"geometry":{"type":"Point","coordinates":[-73.93705428,40.69237074]}},{"type":"Feature","properties":{"station_id":3059,"station_name":"Pulaski St & Marcus Garvey Blvd","t_rides":"6,950","d_rides":19},"geometry":{"type":"Point","coordinates":[-73.939877,40.6933982]}},{"type":"Feature","properties":{"station_id":3060,"station_name":"Willoughby Ave & Tompkins Ave","t_rides":"10,237","d_rides":28},"geometry":{"type":"Point","coordinates":[-73.94626915,40.69425403]}},{"type":"Feature","properties":{"station_id":3061,"station_name":"Throop Ave & Myrtle Ave","t_rides":"6,061","d_rides":17},"geometry":{"type":"Point","coordinates":[-73.94371094,40.69622937]}},{"type":"Feature","properties":{"station_id":3062,"station_name":"Myrtle Ave & Marcy Ave","t_rides":"12,513","d_rides":34},"geometry":{"type":"Point","coordinates":[-73.94954908,40.69539817]}},{"type":"Feature","properties":{"station_id":3063,"station_name":"Nostrand Ave & Myrtle Ave","t_rides":"8,025","d_rides":22},"geometry":{"type":"Point","coordinates":[-73.95238108,40.69527008]}},{"type":"Feature","properties":{"station_id":3064,"station_name":"Myrtle Ave & Lewis Ave","t_rides":"28,367","d_rides":78},"geometry":{"type":"Point","coordinates":[-73.93756926,40.69681963]}},{"type":"Feature","properties":{"station_id":3065,"station_name":"Union Ave & Wallabout St","t_rides":"8,025","d_rides":22},"geometry":{"type":"Point","coordinates":[-73.95032283,40.70029511]}},{"type":"Feature","properties":{"station_id":3066,"station_name":"Tompkins Ave & Hopkins St","t_rides":"10,325","d_rides":28},"geometry":{"type":"Point","coordinates":[-73.94708417,40.69957608]}},{"type":"Feature","properties":{"station_id":3067,"station_name":"Broadway & Whipple St","t_rides":"15,025","d_rides":41},"geometry":{"type":"Point","coordinates":[-73.9437303,40.7016657]}},{"type":"Feature","properties":{"station_id":3068,"station_name":"Humboldt St & Varet St","t_rides":"15,623","d_rides":43},"geometry":{"type":"Point","coordinates":[-73.940636,40.7031724]}},{"type":"Feature","properties":{"station_id":3069,"station_name":"Lorimer St & Broadway","t_rides":"9,368","d_rides":26},"geometry":{"type":"Point","coordinates":[-73.94818595,40.70411791]}},{"type":"Feature","properties":{"station_id":3070,"station_name":"McKibbin St & Manhattan Ave","t_rides":"10,059","d_rides":28},"geometry":{"type":"Point","coordinates":[-73.94407279,40.70510918]}},{"type":"Feature","properties":{"station_id":3071,"station_name":"Boerum St & Broadway","t_rides":"12,370","d_rides":34},"geometry":{"type":"Point","coordinates":[-73.94976519,40.70538077]}},{"type":"Feature","properties":{"station_id":3072,"station_name":"Leonard St & Boerum St","t_rides":"9,921","d_rides":27},"geometry":{"type":"Point","coordinates":[-73.94644578,40.70583339]}},{"type":"Feature","properties":{"station_id":3073,"station_name":"Division Ave & Hooper St","t_rides":"6,873","d_rides":19},"geometry":{"type":"Point","coordinates":[-73.95441667,40.70691254]}},{"type":"Feature","properties":{"station_id":3074,"station_name":"Montrose Ave & Bushwick Ave","t_rides":"17,242","d_rides":47},"geometry":{"type":"Point","coordinates":[-73.94016171,40.70767788]}},{"type":"Feature","properties":{"station_id":3075,"station_name":"Division Ave & Marcy Ave","t_rides":"6,662","d_rides":18},"geometry":{"type":"Point","coordinates":[-73.95796783,40.70708701]}},{"type":"Feature","properties":{"station_id":3076,"station_name":"Scholes St & Manhattan Ave","t_rides":"22,582","d_rides":62},"geometry":{"type":"Point","coordinates":[-73.9448625,40.70870368]}},{"type":"Feature","properties":{"station_id":3077,"station_name":"Stagg St & Union Ave","t_rides":"25,696","d_rides":70},"geometry":{"type":"Point","coordinates":[-73.95095259,40.70877084]}},{"type":"Feature","properties":{"station_id":3078,"station_name":"Broadway & Roebling St","t_rides":"32,941","d_rides":90},"geometry":{"type":"Point","coordinates":[-73.96063149,40.70924826]}},{"type":"Feature","properties":{"station_id":3080,"station_name":"S 4 St & Rodney St","t_rides":"20,956","d_rides":57},"geometry":{"type":"Point","coordinates":[-73.95608,40.70934]}},{"type":"Feature","properties":{"station_id":3081,"station_name":"Graham Ave & Grand St","t_rides":"20,337","d_rides":56},"geometry":{"type":"Point","coordinates":[-73.944024,40.711863]}},{"type":"Feature","properties":{"station_id":3082,"station_name":"Hope St & Union Ave","t_rides":"30,060","d_rides":82},"geometry":{"type":"Point","coordinates":[-73.95141312,40.71167351]}},{"type":"Feature","properties":{"station_id":3083,"station_name":"Bushwick Ave & Powers St","t_rides":"23,013","d_rides":63},"geometry":{"type":"Point","coordinates":[-73.94100005,40.71247661]}},{"type":"Feature","properties":{"station_id":3085,"station_name":"Roebling St & N 4 St","t_rides":"19,263","d_rides":53},"geometry":{"type":"Point","coordinates":[-73.95739,40.71469]}},{"type":"Feature","properties":{"station_id":3086,"station_name":"Graham Ave & Conselyea St","t_rides":"44,314","d_rides":121},"geometry":{"type":"Point","coordinates":[-73.944507,40.715143]}},{"type":"Feature","properties":{"station_id":3087,"station_name":"Metropolitan Ave & Meeker Ave","t_rides":"31,813","d_rides":87},"geometry":{"type":"Point","coordinates":[-73.95234386,40.71413311]}},{"type":"Feature","properties":{"station_id":3088,"station_name":"Union Ave & Jackson St","t_rides":"13,658","d_rides":37},"geometry":{"type":"Point","coordinates":[-73.952029,40.7160751]}},{"type":"Feature","properties":{"station_id":3090,"station_name":"N 8 St & Driggs Ave","t_rides":"62,941","d_rides":172},"geometry":{"type":"Point","coordinates":[-73.95600096,40.71774592]}},{"type":"Feature","properties":{"station_id":3091,"station_name":"Frost St & Meeker St","t_rides":"9,585","d_rides":26},"geometry":{"type":"Point","coordinates":[-73.94882,40.71764]}},{"type":"Feature","properties":{"station_id":3092,"station_name":"Berry St & N 8 St","t_rides":"51,054","d_rides":140},"geometry":{"type":"Point","coordinates":[-73.95852515,40.7190095]}},{"type":"Feature","properties":{"station_id":3093,"station_name":"N 6 St & Bedford Ave","t_rides":"77,679","d_rides":213},"geometry":{"type":"Point","coordinates":[-73.95850939,40.71745169]}},{"type":"Feature","properties":{"station_id":3094,"station_name":"Graham Ave & Withers St","t_rides":"16,679","d_rides":46},"geometry":{"type":"Point","coordinates":[-73.94485918,40.7169811]}},{"type":"Feature","properties":{"station_id":3095,"station_name":"Graham Ave & Herbert St","t_rides":"12,577","d_rides":34},"geometry":{"type":"Point","coordinates":[-73.94500379,40.71929301]}},{"type":"Feature","properties":{"station_id":3096,"station_name":"Union Ave & N 12 St","t_rides":"32,972","d_rides":90},"geometry":{"type":"Point","coordinates":[-73.95242,40.71924]}},{"type":"Feature","properties":{"station_id":3100,"station_name":"Nassau Ave & Newell St","t_rides":"26,553","d_rides":73},"geometry":{"type":"Point","coordinates":[-73.94752622,40.72481256]}},{"type":"Feature","properties":{"station_id":3101,"station_name":"N 12 St & Bedford Ave","t_rides":"32,225","d_rides":88},"geometry":{"type":"Point","coordinates":[-73.95484712,40.72079821]}},{"type":"Feature","properties":{"station_id":3102,"station_name":"Driggs Ave & Lorimer St","t_rides":"20,650","d_rides":57},"geometry":{"type":"Point","coordinates":[-73.9504154,40.72179134]}},{"type":"Feature","properties":{"station_id":3103,"station_name":"N 11 St & Wythe Ave","t_rides":"7,300","d_rides":20},"geometry":{"type":"Point","coordinates":[-73.95782357,40.72153267]}},{"type":"Feature","properties":{"station_id":3105,"station_name":"N 15 St & Wythe Ave","t_rides":"17,778","d_rides":49},"geometry":{"type":"Point","coordinates":[-73.955736,40.724055]}},{"type":"Feature","properties":{"station_id":3106,"station_name":"Driggs Ave & N Henry St","t_rides":"27,891","d_rides":76},"geometry":{"type":"Point","coordinates":[-73.94308,40.72325]}},{"type":"Feature","properties":{"station_id":3107,"station_name":"Bedford Ave & Nassau Ave","t_rides":"53,393","d_rides":146},"geometry":{"type":"Point","coordinates":[-73.95212324,40.72311651]}},{"type":"Feature","properties":{"station_id":3108,"station_name":"Nassau Ave & Russell St","t_rides":"32,711","d_rides":90},"geometry":{"type":"Point","coordinates":[-73.94434,40.72557]}},{"type":"Feature","properties":{"station_id":3109,"station_name":"Banker St & Meserole Ave","t_rides":"31,068","d_rides":85},"geometry":{"type":"Point","coordinates":[-73.95621,40.72606]}},{"type":"Feature","properties":{"station_id":3110,"station_name":"Meserole Ave & Manhattan Ave","t_rides":"40,175","d_rides":110},"geometry":{"type":"Point","coordinates":[-73.95299117,40.72708584]}},{"type":"Feature","properties":{"station_id":3112,"station_name":"Milton St & Franklin St","t_rides":"59,617","d_rides":163},"geometry":{"type":"Point","coordinates":[-73.95779,40.72906]}},{"type":"Feature","properties":{"station_id":3113,"station_name":"Greenpoint Ave & Manhattan Ave","t_rides":"37,077","d_rides":102},"geometry":{"type":"Point","coordinates":[-73.95394,40.73026]}},{"type":"Feature","properties":{"station_id":3115,"station_name":"India St & Manhattan Ave","t_rides":"29,570","d_rides":81},"geometry":{"type":"Point","coordinates":[-73.9550858,40.73232194]}},{"type":"Feature","properties":{"station_id":3116,"station_name":"Huron St & Franklin St","t_rides":"32,220","d_rides":88},"geometry":{"type":"Point","coordinates":[-73.95826,40.73266]}},{"type":"Feature","properties":{"station_id":3117,"station_name":"Franklin St & Dupont St","t_rides":"23,982","d_rides":66},"geometry":{"type":"Point","coordinates":[-73.95866,40.73564]}},{"type":"Feature","properties":{"station_id":3118,"station_name":"McGuinness Blvd & Eagle St","t_rides":"28,843","d_rides":79},"geometry":{"type":"Point","coordinates":[-73.95284,40.73555]}},{"type":"Feature","properties":{"station_id":3119,"station_name":"Vernon Blvd & 50 Ave","t_rides":"47,360","d_rides":130},"geometry":{"type":"Point","coordinates":[-73.95411749,40.74232744]}},{"type":"Feature","properties":{"station_id":3120,"station_name":"Center Blvd & Borden Ave","t_rides":"11,229","d_rides":31},"geometry":{"type":"Point","coordinates":[-73.96044,40.74161]}},{"type":"Feature","properties":{"station_id":3121,"station_name":"Jackson Ave & 46 Rd","t_rides":"11,095","d_rides":30},"geometry":{"type":"Point","coordinates":[-73.94733276,40.74524768]}},{"type":"Feature","properties":{"station_id":3122,"station_name":"48 Ave & 5 St","t_rides":"9,370","d_rides":26},"geometry":{"type":"Point","coordinates":[-73.95587325,40.74436329]}},{"type":"Feature","properties":{"station_id":3123,"station_name":"31 St & Thomson Ave","t_rides":"8,215","d_rides":23},"geometry":{"type":"Point","coordinates":[-73.93540375,40.74469738]}},{"type":"Feature","properties":{"station_id":3124,"station_name":"46 Ave & 5 St","t_rides":"31,428","d_rides":86},"geometry":{"type":"Point","coordinates":[-73.95451,40.74731]}},{"type":"Feature","properties":{"station_id":3125,"station_name":"45 Rd & 11 St","t_rides":"21,356","d_rides":59},"geometry":{"type":"Point","coordinates":[-73.94977234,40.74708586]}},{"type":"Feature","properties":{"station_id":3126,"station_name":"44 Dr & Jackson Ave","t_rides":"27,748","d_rides":76},"geometry":{"type":"Point","coordinates":[-73.9432635,40.74718234]}},{"type":"Feature","properties":{"station_id":3127,"station_name":"9 St & 44 Rd","t_rides":"7,195","d_rides":20},"geometry":{"type":"Point","coordinates":[-73.9521,40.74966]}},{"type":"Feature","properties":{"station_id":3128,"station_name":"21 St & 43 Ave","t_rides":"5,950","d_rides":16},"geometry":{"type":"Point","coordinates":[-73.94594845,40.75052534]}},{"type":"Feature","properties":{"station_id":3129,"station_name":"Queens Plaza North & Crescent St","t_rides":"49,610","d_rides":136},"geometry":{"type":"Point","coordinates":[-73.94073717,40.75110165]}},{"type":"Feature","properties":{"station_id":3130,"station_name":"21 St & Queens Plaza North","t_rides":"13,930","d_rides":38},"geometry":{"type":"Point","coordinates":[-73.94335788,40.75325964]}},{"type":"Feature","properties":{"station_id":3131,"station_name":"E 68 St & 3 Ave","t_rides":"27,330","d_rides":75},"geometry":{"type":"Point","coordinates":[-73.96224618,40.7671284]}},{"type":"Feature","properties":{"station_id":3132,"station_name":"E 59 St & Madison Ave","t_rides":"49,550","d_rides":136},"geometry":{"type":"Point","coordinates":[-73.97109243,40.76350532]}},{"type":"Feature","properties":{"station_id":3134,"station_name":"3 Ave & E 62 St","t_rides":"38,255","d_rides":105},"geometry":{"type":"Point","coordinates":[-73.96526895,40.76312584]}},{"type":"Feature","properties":{"station_id":3135,"station_name":"E 75 St & 3 Ave","t_rides":"29,156","d_rides":80},"geometry":{"type":"Point","coordinates":[-73.95772297,40.77112927]}},{"type":"Feature","properties":{"station_id":3136,"station_name":"5 Ave & E 63 St","t_rides":"42,036","d_rides":115},"geometry":{"type":"Point","coordinates":[-73.971518,40.766368]}},{"type":"Feature","properties":{"station_id":3137,"station_name":"5 Ave & E 73 St","t_rides":"88,009","d_rides":241},"geometry":{"type":"Point","coordinates":[-73.96685276,40.77282817]}},{"type":"Feature","properties":{"station_id":3139,"station_name":"E 72 St & Park Ave","t_rides":"32,176","d_rides":88},"geometry":{"type":"Point","coordinates":[-73.96409422,40.77118288]}},{"type":"Feature","properties":{"station_id":3140,"station_name":"1 Ave & E 78 St","t_rides":"76,303","d_rides":209},"geometry":{"type":"Point","coordinates":[-73.9535166,40.77140426]}},{"type":"Feature","properties":{"station_id":3141,"station_name":"1 Ave & E 68 St","t_rides":"113,944","d_rides":312},"geometry":{"type":"Point","coordinates":[-73.95818491,40.76500525]}},{"type":"Feature","properties":{"station_id":3142,"station_name":"1 Ave & E 62 St","t_rides":"79,237","d_rides":217},"geometry":{"type":"Point","coordinates":[-73.96094022,40.7612274]}},{"type":"Feature","properties":{"station_id":3143,"station_name":"5 Ave & E 78 St","t_rides":"67,994","d_rides":186},"geometry":{"type":"Point","coordinates":[-73.96427393,40.77632142]}},{"type":"Feature","properties":{"station_id":3144,"station_name":"E 81 St & Park Ave","t_rides":"12,421","d_rides":34},"geometry":{"type":"Point","coordinates":[-73.9590097,40.77677702]}},{"type":"Feature","properties":{"station_id":3145,"station_name":"E 84 St & Park Ave","t_rides":"29,275","d_rides":80},"geometry":{"type":"Point","coordinates":[-73.95772073,40.77862688]}},{"type":"Feature","properties":{"station_id":3146,"station_name":"E 81 St & 3 Ave","t_rides":"33,159","d_rides":91},"geometry":{"type":"Point","coordinates":[-73.9567526,40.77573034]}},{"type":"Feature","properties":{"station_id":3147,"station_name":"E 85 St & 3 Ave","t_rides":"74,989","d_rides":205},"geometry":{"type":"Point","coordinates":[-73.95407149,40.77801203]}},{"type":"Feature","properties":{"station_id":3148,"station_name":"E 84 St & 1 Ave","t_rides":"39,841","d_rides":109},"geometry":{"type":"Point","coordinates":[-73.95068615,40.77565541]}},{"type":"Feature","properties":{"station_id":3150,"station_name":"E 85 St & York Ave","t_rides":"29,739","d_rides":81},"geometry":{"type":"Point","coordinates":[-73.94803392,40.77536905]}},{"type":"Feature","properties":{"station_id":3151,"station_name":"E 81 St & York Ave","t_rides":"29,399","d_rides":81},"geometry":{"type":"Point","coordinates":[-73.94989233,40.7728384]}},{"type":"Feature","properties":{"station_id":3152,"station_name":"3 Ave & E 71 St","t_rides":"19,747","d_rides":54},"geometry":{"type":"Point","coordinates":[-73.96119945,40.76873687]}},{"type":"Feature","properties":{"station_id":3153,"station_name":"E 71 St & 2 Ave","t_rides":"10,818","d_rides":30},"geometry":{"type":"Point","coordinates":[-73.95910263,40.76817547]}},{"type":"Feature","properties":{"station_id":3154,"station_name":"E 77 St & 3 Ave","t_rides":"5,091","d_rides":14},"geometry":{"type":"Point","coordinates":[-73.95856158,40.77314236]}},{"type":"Feature","properties":{"station_id":3155,"station_name":"Lexington Ave & E 63 St","t_rides":"44,310","d_rides":121},"geometry":{"type":"Point","coordinates":[-73.96648977,40.76440023]}},{"type":"Feature","properties":{"station_id":3156,"station_name":"E 72 St & York Ave","t_rides":"61,728","d_rides":169},"geometry":{"type":"Point","coordinates":[-73.95348296,40.76663814]}},{"type":"Feature","properties":{"station_id":3157,"station_name":"East End Ave & E 86 St","t_rides":"16,667","d_rides":46},"geometry":{"type":"Point","coordinates":[-73.94446054,40.77518615]}},{"type":"Feature","properties":{"station_id":3158,"station_name":"W 63 St & Broadway","t_rides":"86,096","d_rides":236},"geometry":{"type":"Point","coordinates":[-73.98261428,40.77163851]}},{"type":"Feature","properties":{"station_id":3159,"station_name":"W 67 St & Broadway","t_rides":"81,565","d_rides":223},"geometry":{"type":"Point","coordinates":[-73.98266566,40.77492513]}},{"type":"Feature","properties":{"station_id":3160,"station_name":"Central Park West & W 76 St","t_rides":"63,308","d_rides":173},"geometry":{"type":"Point","coordinates":[-73.97374737,40.77896784]}},{"type":"Feature","properties":{"station_id":3161,"station_name":"W 76 St & Columbus Ave","t_rides":"55,168","d_rides":151},"geometry":{"type":"Point","coordinates":[-73.97728533,40.78018397]}},{"type":"Feature","properties":{"station_id":3162,"station_name":"W 78 St & Broadway","t_rides":"41,193","d_rides":113},"geometry":{"type":"Point","coordinates":[-73.98093133,40.78339981]}},{"type":"Feature","properties":{"station_id":3163,"station_name":"Central Park West & W 68 St","t_rides":"91,731","d_rides":251},"geometry":{"type":"Point","coordinates":[-73.97782542,40.7734066]}},{"type":"Feature","properties":{"station_id":3164,"station_name":"Columbus Ave & W 72 St","t_rides":"118,679","d_rides":325},"geometry":{"type":"Point","coordinates":[-73.97898475,40.7770575]}},{"type":"Feature","properties":{"station_id":3165,"station_name":"Central Park West & W 72 St","t_rides":"103,490","d_rides":284},"geometry":{"type":"Point","coordinates":[-73.97620574,40.77579377]}},{"type":"Feature","properties":{"station_id":3166,"station_name":"Riverside Dr & W 72 St","t_rides":"50,768","d_rides":139},"geometry":{"type":"Point","coordinates":[-73.98562431,40.78057799]}},{"type":"Feature","properties":{"station_id":3167,"station_name":"Amsterdam Ave & W 73 St","t_rides":"102,728","d_rides":281},"geometry":{"type":"Point","coordinates":[-73.98093045,40.77966809]}},{"type":"Feature","properties":{"station_id":3168,"station_name":"Central Park West & W 85 St","t_rides":"79,835","d_rides":219},"geometry":{"type":"Point","coordinates":[-73.96961715,40.78472675]}},{"type":"Feature","properties":{"station_id":3169,"station_name":"Riverside Dr & W 82 St","t_rides":"35,330","d_rides":97},"geometry":{"type":"Point","coordinates":[-73.98128127,40.78720869]}},{"type":"Feature","properties":{"station_id":3170,"station_name":"W 84 St & Columbus Ave","t_rides":"52,163","d_rides":143},"geometry":{"type":"Point","coordinates":[-73.97283406,40.78499979]}},{"type":"Feature","properties":{"station_id":3171,"station_name":"Amsterdam Ave & W 82 St","t_rides":"56,002","d_rides":153},"geometry":{"type":"Point","coordinates":[-73.97667321,40.78524672]}},{"type":"Feature","properties":{"station_id":3172,"station_name":"W 74 St & Columbus Ave","t_rides":"35,216","d_rides":96},"geometry":{"type":"Point","coordinates":[-73.97754961,40.7785669]}},{"type":"Feature","properties":{"station_id":3173,"station_name":"Riverside Blvd & W 67 St","t_rides":"55,024","d_rides":151},"geometry":{"type":"Point","coordinates":[-73.98888588,40.77750703]}},{"type":"Feature","properties":{"station_id":3175,"station_name":"W 70 St & Amsterdam Ave","t_rides":"49,804","d_rides":136},"geometry":{"type":"Point","coordinates":[-73.98288594,40.77748046]}},{"type":"Feature","properties":{"station_id":3176,"station_name":"W 64 St & West End Ave","t_rides":"26,005","d_rides":71},"geometry":{"type":"Point","coordinates":[-73.98753759,40.77452835]}},{"type":"Feature","properties":{"station_id":3177,"station_name":"W 84 St & Broadway","t_rides":"45,379","d_rides":124},"geometry":{"type":"Point","coordinates":[-73.977112,40.7867947]}},{"type":"Feature","properties":{"station_id":3178,"station_name":"Riverside Dr & W 78 St","t_rides":"30,617","d_rides":84},"geometry":{"type":"Point","coordinates":[-73.98362492,40.78414472]}},{"type":"Feature","properties":{"station_id":3179,"station_name":"Park Ave & Marcus Garvey Blvd","t_rides":"7,452","d_rides":20},"geometry":{"type":"Point","coordinates":[-73.941342,40.698617]}},{"type":"Feature","properties":{"station_id":3180,"station_name":"Brooklyn Bridge Park - Pier 2","t_rides":"21,726","d_rides":60},"geometry":{"type":"Point","coordinates":[-73.99712,40.69878]}},{"type":"Feature","properties":{"station_id":3182,"station_name":"Yankee Ferry Terminal","t_rides":"15,708","d_rides":43},"geometry":{"type":"Point","coordinates":[-74.016966,40.686931]}},{"type":"Feature","properties":{"station_id":3221,"station_name":"47 Ave & 31 St","t_rides":"7,917","d_rides":22},"geometry":{"type":"Point","coordinates":[-73.93561,40.743]}},{"type":"Feature","properties":{"station_id":3223,"station_name":"E 55 St & 3 Ave","t_rides":"72,557","d_rides":199},"geometry":{"type":"Point","coordinates":[-73.96865398,40.75899656]}},{"type":"Feature","properties":{"station_id":3224,"station_name":"W 13 St & Hudson St","t_rides":"36,924","d_rides":101},"geometry":{"type":"Point","coordinates":[-74.00513873,40.73997354]}},{"type":"Feature","properties":{"station_id":3226,"station_name":"W 82 St & Central Park West","t_rides":"51,368","d_rides":141},"geometry":{"type":"Point","coordinates":[-73.97137,40.78275]}},{"type":"Feature","properties":{"station_id":3231,"station_name":"E 67 St & Park Ave","t_rides":"18,132","d_rides":50},"geometry":{"type":"Point","coordinates":[-73.96592081,40.7678008]}},{"type":"Feature","properties":{"station_id":3232,"station_name":"Bond St & Fulton St","t_rides":"46,038","d_rides":126},"geometry":{"type":"Point","coordinates":[-73.98304269,40.68962189]}},{"type":"Feature","properties":{"station_id":3233,"station_name":"E 48 St & 5 Ave","t_rides":"108,730","d_rides":298},"geometry":{"type":"Point","coordinates":[-73.97805914,40.75724568]}},{"type":"Feature","properties":{"station_id":3235,"station_name":"E 41 St & Madison Ave","t_rides":"82,039","d_rides":225},"geometry":{"type":"Point","coordinates":[-73.97992194,40.75216528]}},{"type":"Feature","properties":{"station_id":3236,"station_name":"W 42 St & Dyer Ave","t_rides":"82,985","d_rides":227},"geometry":{"type":"Point","coordinates":[-73.99379969,40.75898481]}},{"type":"Feature","properties":{"station_id":3238,"station_name":"E 80 St & 2 Ave","t_rides":"3,308","d_rides":9},"geometry":{"type":"Point","coordinates":[-73.95439535,40.7739139]}},{"type":"Feature","properties":{"station_id":3239,"station_name":"Bressler","t_rides":358,"d_rides":1},"geometry":{"type":"Point","coordinates":[-74.01658773,40.64653837]}},{"type":"Feature","properties":{"station_id":3240,"station_name":"NYCBS Depot BAL - DYR","t_rides":160,"d_rides":0},"geometry":{"type":"Point","coordinates":[-73.9938587,40.75903008]}},{"type":"Feature","properties":{"station_id":3241,"station_name":"Monroe St & Tompkins Ave","t_rides":"14,387","d_rides":39},"geometry":{"type":"Point","coordinates":[-73.944694,40.686203]}},{"type":"Feature","properties":{"station_id":3242,"station_name":"Schermerhorn St & Court St","t_rides":"31,060","d_rides":85},"geometry":{"type":"Point","coordinates":[-73.99183363,40.69102926]}},{"type":"Feature","properties":{"station_id":3243,"station_name":"E 58 St & 1 Ave","t_rides":"49,679","d_rides":136},"geometry":{"type":"Point","coordinates":[-73.96226227,40.75892386]}},{"type":"Feature","properties":{"station_id":3244,"station_name":"University Pl & E 8 St","t_rides":"89,064","d_rides":244},"geometry":{"type":"Point","coordinates":[-73.99490342,40.73143724]}},{"type":"Feature","properties":{"station_id":3245,"station_name":"NYCBS DEPOT - DELANCEY","t_rides":819,"d_rides":2},"geometry":{"type":"Point","coordinates":[-73.98233056,40.71644423]}},{"type":"Feature","properties":{"station_id":3249,"station_name":"Verona Pl & Fulton St","t_rides":"13,998","d_rides":38},"geometry":{"type":"Point","coordinates":[-73.9476791,40.68035608]}},{"type":"Feature","properties":{"station_id":3250,"station_name":"NYCBS Depot - PIT","t_rides":3,"d_rides":0},"geometry":{"type":"Point","coordinates":[-73.98383796,40.71690978]}},{"type":"Feature","properties":{"station_id":3254,"station_name":"Soissons Landing","t_rides":"15,849","d_rides":43},"geometry":{"type":"Point","coordinates":[-74.01486576,40.69231661]}},{"type":"Feature","properties":{"station_id":3255,"station_name":"8 Ave & W 31 St","t_rides":"162,187","d_rides":444},"geometry":{"type":"Point","coordinates":[-73.99468482,40.75058535]}},{"type":"Feature","properties":{"station_id":3256,"station_name":"Pier 40 - Hudson River Park","t_rides":"106,569","d_rides":292},"geometry":{"type":"Point","coordinates":[-74.01129574,40.72771408]}},{"type":"Feature","properties":{"station_id":3258,"station_name":"W 27 St & 10 Ave","t_rides":"105,076","d_rides":288},"geometry":{"type":"Point","coordinates":[-74.00218427,40.75018156]}},{"type":"Feature","properties":{"station_id":3259,"station_name":"9 Ave & W 28 St","t_rides":"51,456","d_rides":141},"geometry":{"type":"Point","coordinates":[-73.99923384,40.74937024]}},{"type":"Feature","properties":{"station_id":3260,"station_name":"Mercer St & Bleecker St","t_rides":"112,197","d_rides":307},"geometry":{"type":"Point","coordinates":[-73.99662137,40.72706363]}},{"type":"Feature","properties":{"station_id":3263,"station_name":"Cooper Square & Astor Pl","t_rides":"146,198","d_rides":401},"geometry":{"type":"Point","coordinates":[-73.9907527,40.72951496]}},{"type":"Feature","properties":{"station_id":3282,"station_name":"5 Ave & E 88 St","t_rides":"90,844","d_rides":249},"geometry":{"type":"Point","coordinates":[-73.95939,40.78307]}},{"type":"Feature","properties":{"station_id":3283,"station_name":"W 89 St & Columbus Ave","t_rides":"49,585","d_rides":136},"geometry":{"type":"Point","coordinates":[-73.97041561,40.7882213]}},{"type":"Feature","properties":{"station_id":3284,"station_name":"E 88 St & Park Ave","t_rides":"21,945","d_rides":60},"geometry":{"type":"Point","coordinates":[-73.95595908,40.7814107]}},{"type":"Feature","properties":{"station_id":3285,"station_name":"W 87 St & Amsterdam Ave","t_rides":"40,003","d_rides":110},"geometry":{"type":"Point","coordinates":[-73.9747,40.78839]}},{"type":"Feature","properties":{"station_id":3286,"station_name":"E 89 St & 3 Ave","t_rides":"19,650","d_rides":54},"geometry":{"type":"Point","coordinates":[-73.9521667,40.7806284]}},{"type":"Feature","properties":{"station_id":3288,"station_name":"E 88 St & 1 Ave","t_rides":"26,083","d_rides":71},"geometry":{"type":"Point","coordinates":[-73.9488134,40.778301]}},{"type":"Feature","properties":{"station_id":3289,"station_name":"W 90 St & Amsterdam Ave","t_rides":"27,128","d_rides":74},"geometry":{"type":"Point","coordinates":[-73.97288918,40.79017948]}},{"type":"Feature","properties":{"station_id":3290,"station_name":"E 89 St & York Ave","t_rides":"16,536","d_rides":45},"geometry":{"type":"Point","coordinates":[-73.946041,40.7779453]}},{"type":"Feature","properties":{"station_id":3292,"station_name":"5 Ave & E 93 St","t_rides":"31,272","d_rides":86},"geometry":{"type":"Point","coordinates":[-73.957481,40.7857851]}},{"type":"Feature","properties":{"station_id":3293,"station_name":"W 92 St & Broadway","t_rides":"35,752","d_rides":98},"geometry":{"type":"Point","coordinates":[-73.9739,40.7921]}},{"type":"Feature","properties":{"station_id":3294,"station_name":"E 91 St & Park Ave","t_rides":"23,530","d_rides":64},"geometry":{"type":"Point","coordinates":[-73.955327,40.7835016]}},{"type":"Feature","properties":{"station_id":3295,"station_name":"Central Park W & W 96 St","t_rides":"66,199","d_rides":181},"geometry":{"type":"Point","coordinates":[-73.964839,40.79127]}},{"type":"Feature","properties":{"station_id":3296,"station_name":"E 93 St & 2 Ave","t_rides":"21,528","d_rides":59},"geometry":{"type":"Point","coordinates":[-73.94891962,40.78245418]}},{"type":"Feature","properties":{"station_id":3297,"station_name":"6 St & 7 Ave","t_rides":"14,457","d_rides":40},"geometry":{"type":"Point","coordinates":[-73.97988067,40.6686627]}},{"type":"Feature","properties":{"station_id":3298,"station_name":"Warren St & Court St","t_rides":"24,468","d_rides":67},"geometry":{"type":"Point","coordinates":[-73.99383324,40.686371]}},{"type":"Feature","properties":{"station_id":3299,"station_name":"E 98 St & Park Ave","t_rides":"6,501","d_rides":18},"geometry":{"type":"Point","coordinates":[-73.95206,40.78813]}},{"type":"Feature","properties":{"station_id":3300,"station_name":"Prospect Park West & 8 St","t_rides":"22,339","d_rides":61},"geometry":{"type":"Point","coordinates":[-73.97637606,40.66514682]}},{"type":"Feature","properties":{"station_id":3301,"station_name":"Columbus Ave & W 95 St","t_rides":"45,471","d_rides":125},"geometry":{"type":"Point","coordinates":[-73.968087,40.7919557]}},{"type":"Feature","properties":{"station_id":3302,"station_name":"Columbus Ave & W 103 St","t_rides":"10,333","d_rides":28},"geometry":{"type":"Point","coordinates":[-73.96434123,40.7969347]}},{"type":"Feature","properties":{"station_id":3303,"station_name":"Butler St & Court St","t_rides":"18,206","d_rides":50},"geometry":{"type":"Point","coordinates":[-73.99440329,40.6849894]}},{"type":"Feature","properties":{"station_id":3304,"station_name":"6 Ave & 9 St","t_rides":"22,365","d_rides":61},"geometry":{"type":"Point","coordinates":[-73.98377641,40.668127]}},{"type":"Feature","properties":{"station_id":3305,"station_name":"E 91 St & 2 Ave","t_rides":"47,552","d_rides":130},"geometry":{"type":"Point","coordinates":[-73.94965589,40.7811223]}},{"type":"Feature","properties":{"station_id":3306,"station_name":"10 St & 7 Ave","t_rides":"18,652","d_rides":51},"geometry":{"type":"Point","coordinates":[-73.98199886,40.6662078]}},{"type":"Feature","properties":{"station_id":3307,"station_name":"West End Ave & W 94 St","t_rides":"29,647","d_rides":81},"geometry":{"type":"Point","coordinates":[-73.974124,40.7941654]}},{"type":"Feature","properties":{"station_id":3308,"station_name":"Kane St & Clinton St","t_rides":"24,814","d_rides":68},"geometry":{"type":"Point","coordinates":[-73.99645295,40.6861758]}},{"type":"Feature","properties":{"station_id":3309,"station_name":"E 97 St & 3 Ave","t_rides":"9,277","d_rides":25},"geometry":{"type":"Point","coordinates":[-73.94860294,40.7859201]}},{"type":"Feature","properties":{"station_id":3310,"station_name":"14 St & 7 Ave","t_rides":"19,383","d_rides":53},"geometry":{"type":"Point","coordinates":[-73.98396846,40.663779]}},{"type":"Feature","properties":{"station_id":3311,"station_name":"Columbia St & Kane St","t_rides":"20,506","d_rides":56},"geometry":{"type":"Point","coordinates":[-74.0016256,40.68763155]}},{"type":"Feature","properties":{"station_id":3312,"station_name":"1 Ave & E 94 St","t_rides":"29,393","d_rides":81},"geometry":{"type":"Point","coordinates":[-73.94594,40.7817212]}},{"type":"Feature","properties":{"station_id":3313,"station_name":"6 Ave & 12 St","t_rides":"13,023","d_rides":36},"geometry":{"type":"Point","coordinates":[-73.9854617,40.6663181]}},{"type":"Feature","properties":{"station_id":3314,"station_name":"W 95 St & Broadway","t_rides":"51,455","d_rides":141},"geometry":{"type":"Point","coordinates":[-73.971888,40.7937704]}},{"type":"Feature","properties":{"station_id":3315,"station_name":"Henry St & Degraw St","t_rides":"33,316","d_rides":91},"geometry":{"type":"Point","coordinates":[-73.99917254,40.6847514]}},{"type":"Feature","properties":{"station_id":3316,"station_name":"W 104 St & Amsterdam Ave - 1","t_rides":"13,593","d_rides":37},"geometry":{"type":"Point","coordinates":[-73.96621738,40.7989937]}},{"type":"Feature","properties":{"station_id":3317,"station_name":"10 St & 5 Ave","t_rides":"12,709","d_rides":35},"geometry":{"type":"Point","coordinates":[-73.98700053,40.6686273]}},{"type":"Feature","properties":{"station_id":3318,"station_name":"2 Ave & E 96 St","t_rides":"47,901","d_rides":131},"geometry":{"type":"Point","coordinates":[-73.9471673,40.7839636]}},{"type":"Feature","properties":{"station_id":3319,"station_name":"14 St & 5 Ave","t_rides":"20,476","d_rides":56},"geometry":{"type":"Point","coordinates":[-73.98895053,40.666287]}},{"type":"Feature","properties":{"station_id":3320,"station_name":"Central Park West & W 100 St","t_rides":"38,896","d_rides":107},"geometry":{"type":"Point","coordinates":[-73.96286845,40.79406661]}},{"type":"Feature","properties":{"station_id":3321,"station_name":"Clinton St & Union St","t_rides":"21,054","d_rides":58},"geometry":{"type":"Point","coordinates":[-73.99785267,40.6831164]}},{"type":"Feature","properties":{"station_id":3322,"station_name":"12 St & 4 Ave","t_rides":"9,683","d_rides":27},"geometry":{"type":"Point","coordinates":[-73.9904394,40.668603]}},{"type":"Feature","properties":{"station_id":3323,"station_name":"W 106 St & Central Park West","t_rides":"32,401","d_rides":89},"geometry":{"type":"Point","coordinates":[-73.9605909,40.7981856]}},{"type":"Feature","properties":{"station_id":3324,"station_name":"3 Ave & 14 St","t_rides":"12,867","d_rides":35},"geometry":{"type":"Point","coordinates":[-73.99333264,40.6685455]}},{"type":"Feature","properties":{"station_id":3325,"station_name":"E 95 St & 3 Ave","t_rides":"3,062","d_rides":8},"geometry":{"type":"Point","coordinates":[-73.950503,40.7849032]}},{"type":"Feature","properties":{"station_id":3326,"station_name":"Clinton St & Centre St","t_rides":"5,231","d_rides":14},"geometry":{"type":"Point","coordinates":[-74.00194698,40.67434]}},{"type":"Feature","properties":{"station_id":3327,"station_name":"3 Ave & E 100 St","t_rides":"7,237","d_rides":20},"geometry":{"type":"Point","coordinates":[-73.94728331,40.7877214]}},{"type":"Feature","properties":{"station_id":3328,"station_name":"W 100 St & Manhattan Ave","t_rides":"28,308","d_rides":78},"geometry":{"type":"Point","coordinates":[-73.9645,40.795]}},{"type":"Feature","properties":{"station_id":3329,"station_name":"Degraw St & Smith St","t_rides":"22,704","d_rides":62},"geometry":{"type":"Point","coordinates":[-73.99318208,40.6829151]}},{"type":"Feature","properties":{"station_id":3330,"station_name":"Henry St & Bay St","t_rides":"4,914","d_rides":13},"geometry":{"type":"Point","coordinates":[-74.00494695,40.6725058]}},{"type":"Feature","properties":{"station_id":3331,"station_name":"Riverside Dr & W 104 St","t_rides":"27,337","d_rides":75},"geometry":{"type":"Point","coordinates":[-73.97114574,40.8013434]}},{"type":"Feature","properties":{"station_id":3332,"station_name":"Degraw St & Hoyt St","t_rides":"15,194","d_rides":42},"geometry":{"type":"Point","coordinates":[-73.99079025,40.68199044]}},{"type":"Feature","properties":{"station_id":3333,"station_name":"Columbia St & Lorraine St","t_rides":"2,083","d_rides":6},"geometry":{"type":"Point","coordinates":[-74.0075572,40.6747055]}},{"type":"Feature","properties":{"station_id":3335,"station_name":"Union St & 4 Ave","t_rides":"26,209","d_rides":72},"geometry":{"type":"Point","coordinates":[-73.98282002,40.6772744]}},{"type":"Feature","properties":{"station_id":3336,"station_name":"E 97 St & Madison Ave","t_rides":"33,621","d_rides":92},"geometry":{"type":"Point","coordinates":[-73.953559,40.787801]}},{"type":"Feature","properties":{"station_id":3337,"station_name":"Dwight St & Van Dyke St","t_rides":"5,667","d_rides":16},"geometry":{"type":"Point","coordinates":[-74.01195556,40.67363551]}},{"type":"Feature","properties":{"station_id":3338,"station_name":"2 Ave & E 99 St","t_rides":"13,305","d_rides":36},"geometry":{"type":"Point","coordinates":[-73.94552579,40.7862586]}},{"type":"Feature","properties":{"station_id":3339,"station_name":"Berkeley Pl & 6 Ave","t_rides":"18,471","d_rides":51},"geometry":{"type":"Point","coordinates":[-73.97846879,40.6765304]}},{"type":"Feature","properties":{"station_id":3340,"station_name":"Wolcott St & Dwight St","t_rides":"5,442","d_rides":15},"geometry":{"type":"Point","coordinates":[-74.0100698,40.6753274]}},{"type":"Feature","properties":{"station_id":3341,"station_name":"Central Park West & W 102 St","t_rides":"23,267","d_rides":64},"geometry":{"type":"Point","coordinates":[-73.96186,40.795346]}},{"type":"Feature","properties":{"station_id":3342,"station_name":"Pioneer St & Richards St","t_rides":"6,507","d_rides":18},"geometry":{"type":"Point","coordinates":[-74.0094613,40.6777748]}},{"type":"Feature","properties":{"station_id":3343,"station_name":"W 107 St & Columbus Ave","t_rides":"17,465","d_rides":48},"geometry":{"type":"Point","coordinates":[-73.96211287,40.7997568]}},{"type":"Feature","properties":{"station_id":3344,"station_name":"Pioneer St & Van Brunt St","t_rides":"15,496","d_rides":42},"geometry":{"type":"Point","coordinates":[-74.011169,40.679043]}},{"type":"Feature","properties":{"station_id":3345,"station_name":"Madison Ave & E 99 St","t_rides":"20,344","d_rides":56},"geometry":{"type":"Point","coordinates":[-73.95242929,40.78948542]}},{"type":"Feature","properties":{"station_id":3346,"station_name":"Berkeley Pl & 7 Ave","t_rides":"35,640","d_rides":98},"geometry":{"type":"Point","coordinates":[-73.97523209,40.67514684]}},{"type":"Feature","properties":{"station_id":3347,"station_name":"Van Brunt St & Wolcott St","t_rides":"13,377","d_rides":37},"geometry":{"type":"Point","coordinates":[-74.01275056,40.6773429]}},{"type":"Feature","properties":{"station_id":3348,"station_name":"Coffey St & Conover St","t_rides":"10,597","d_rides":29},"geometry":{"type":"Point","coordinates":[-74.015665,40.677236]}},{"type":"Feature","properties":{"station_id":3349,"station_name":"Grand Army Plaza & Plaza St West","t_rides":"40,736","d_rides":112},"geometry":{"type":"Point","coordinates":[-73.97087984,40.6729679]}},{"type":"Feature","properties":{"station_id":3350,"station_name":"W 100 St & Broadway","t_rides":"41,106","d_rides":113},"geometry":{"type":"Point","coordinates":[-73.97041192,40.7973721]}},{"type":"Feature","properties":{"station_id":3351,"station_name":"E 102 St & 1 Ave","t_rides":"34,174","d_rides":94},"geometry":{"type":"Point","coordinates":[-73.94164802,40.7869946]}},{"type":"Feature","properties":{"station_id":3352,"station_name":"Sigourney St & Columbia St","t_rides":"7,005","d_rides":19},"geometry":{"type":"Point","coordinates":[-74.00879525,40.67267243]}},{"type":"Feature","properties":{"station_id":3354,"station_name":"3 St & Prospect Park West","t_rides":"32,409","d_rides":89},"geometry":{"type":"Point","coordinates":[-73.97363831,40.668132]}},{"type":"Feature","properties":{"station_id":3355,"station_name":"E 66 St & Madison Ave","t_rides":"14,557","d_rides":40},"geometry":{"type":"Point","coordinates":[-73.96845281,40.76800889]}},{"type":"Feature","properties":{"station_id":3356,"station_name":"Amsterdam Ave & W 66 St","t_rides":"33,449","d_rides":92},"geometry":{"type":"Point","coordinates":[-73.98470567,40.7746671]}},{"type":"Feature","properties":{"station_id":3357,"station_name":"W 106 St & Amsterdam Ave","t_rides":"22,953","d_rides":63},"geometry":{"type":"Point","coordinates":[-73.96644925,40.8008363]}},{"type":"Feature","properties":{"station_id":3358,"station_name":"Garfield Pl & 8 Ave","t_rides":"18,950","d_rides":52},"geometry":{"type":"Point","coordinates":[-73.97484126,40.6711978]}},{"type":"Feature","properties":{"station_id":3359,"station_name":"E 68 St & Madison Ave","t_rides":"22,732","d_rides":62},"geometry":{"type":"Point","coordinates":[-73.96703464,40.7691572]}},{"type":"Feature","properties":{"station_id":3360,"station_name":"Amsterdam Ave & W 79 St","t_rides":"57,555","d_rides":158},"geometry":{"type":"Point","coordinates":[-73.9786517,40.7829391]}},{"type":"Feature","properties":{"station_id":3361,"station_name":"Carroll St & 6 Ave","t_rides":"24,069","d_rides":66},"geometry":{"type":"Point","coordinates":[-73.9787282,40.6740886]}},{"type":"Feature","properties":{"station_id":3362,"station_name":"Madison Ave & E 82 St","t_rides":"36,895","d_rides":101},"geometry":{"type":"Point","coordinates":[-73.96069399,40.7781314]}},{"type":"Feature","properties":{"station_id":3363,"station_name":"E 102 St & Park Ave","t_rides":"13,523","d_rides":37},"geometry":{"type":"Point","coordinates":[-73.95033068,40.7904828]}},